Full Address,Latitude,Longitude,category,rating,no_of_rating,location,phone_no,type
"Pothys Hyper Chennai, Tamil Nadu",13.0355069,80.230471,Clothing store,4.4,17000,"Chennai, Tamil Nadu",080 6968 0296,"In-store shopping,Delivery"
"Spencer Plaza Chennai, Tamil Nadu",13.0614067,80.2613024,Shopping mall,4,29000,"Chennai, Tamil Nadu",,
"Cotton Alley Chennai, Tamil Nadu",13.0680906,80.2552689,Clothes market,4.1,1900,"Chennai, Tamil Nadu",,
"Madurai Famous Jigarthanda LLP - Since 1977 Chennai, Tamil Nadu",13.0843007,80.2704622,Ice Cream,4.7,184,"Chennai, Tamil Nadu",078451 66116,"Dine-in,Takeaway"
"Madurai Famous Jigarthanda Medavakkam Chennai, Tamil Nadu",12.9128269,80.1951593,Dessert shop,4.3,95,"Chennai, Tamil Nadu",,"Dine-in,Takeaway"
Madurai Famous Jigarthanda LLP - Since 1977 Tamil Nadu,9.9209182,78.1485807,Ice Cream,4.7,17,Tamil Nadu,090479 88767,"In-store shopping,In-store pick-up"
"MADURAI FAMOUS JIGARTHANDA Guduvancheri, Tamil Nadu",9.9252007,78.1197754,Dairy store,4.2,41,"Guduvancheri, Tamil Nadu",,Delivery
"Phoenix Marketcity Chennai, Tamil Nadu",12.9929399,80.2178681,Shopping mall,4.5,110000,"Chennai, Tamil Nadu",044 6134 3008,
"Express Avenue Chennai, Tamil Nadu",13.0584546,80.2641844,Shopping mall,4.4,100000,"Chennai, Tamil Nadu",,
"Shopping Street Chennai, Tamil Nadu",13.0374416,80.2284142,Shopping mall,4.3,266,"Chennai, Tamil Nadu",,
"TAMILNADU THUNIKKADAI Chennai, Tamil Nadu",13.0340835,80.1557341,Clothing store,4.3,2000,"Chennai, Tamil Nadu",044 2482 6020,
"Madurai Famous Jigarthanda LLP - Since 1977 Old Perungalathur, Chennai, Tamil Nadu",12.9202934,80.0886077,Ice Cream,3.8,60,"Old Perungalathur, Chennai, Tamil Nadu",081899 43668,"Dine-in,Takeaway"
"Madurai Famous jigarthanda Chennai, Tamil Nadu",13.0843007,80.2704622,Ice Cream,4.5,32,"Chennai, Tamil Nadu",,"Dine-in,Takeaway"
"Madurai Famous Jigarthanda LLP - Since 1977 Maraimalai Nagar, Kancheepuram, Tamil Nadu",9.9252007,78.1197754,Ice Cream,4.5,31,"Maraimalai Nagar, Kancheepuram, Tamil Nadu",090479 88767,"Dine-in,Takeaway"
"Madurai Famous Jigarthanda LLP - Since 1977 Vandalur, Padappai, Tamil Nadu",12.8855975,80.0150288,Ice Cream,4.5,39,"Vandalur, Padappai, Tamil Nadu",087548 07522,"Dine-in,Takeaway"
"THE MARINA MALL CHENNAI Egattur, Tamil Nadu",12.8357358,80.2289203,Shopping mall,4.4,30000,"Egattur, Tamil Nadu",044 4017 3017,
"Super Saravana Stores - Purasaiwakkam Chennai, Tamil Nadu",13.086273,80.256937,Department store,4,18000,"Chennai, Tamil Nadu",078239 23777,Delivery
"Madurai Famous Jigarthanda LLP - Since 1977 Kelambakkam, Tamil Nadu",12.7899581,80.2213429,Ice Cream,3.8,48,"Kelambakkam, Tamil Nadu",091904 79767,"Dine-in,Drive-through"
"Madurai Famous Jigardanda LLP - Since 1977 Chennai, Tamil Nadu",12.9581426,80.1870878,Ice Cream,4.3,10,"Chennai, Tamil Nadu",099624 33222,Delivery
"Famous Mens Wear Chennai, Tamil Nadu",13.0312843,80.1839794,Men's clothing store,4.1,11,"Chennai, Tamil Nadu",,Delivery
"Alsa Mall Chennai, Tamil Nadu",13.0687854,80.2573166,Shopping mall,3.8,7400,"Chennai, Tamil Nadu",,
"Rangachari Cloth Store Chennai, Tamil Nadu",13.0371893,80.2624604,Women's clothing store,4.4,2400,"Chennai, Tamil Nadu",044 2499 4545,
"Madurai Famous jigarthanda Chennai, Tamil Nadu",13.0843007,80.2704622,Ice Cream,3.8,46,"Chennai, Tamil Nadu",090479 88767,Delivery
"Madurai famous jigarthanda Chennai, Tamil Nadu",13.0843007,80.2704622,Ice Cream,4.4,17,"Chennai, Tamil Nadu",,"Dine-in,Takeaway"
"Madurai Famous Jigarthanda LLP - Since 1977 Chennai, Tamil Nadu",13.0843007,80.2704622,Ice Cream,4.2,36,"Chennai, Tamil Nadu",087545 76400,Takeaway
"Madurai Famous Jigarthanda LLP - Since 1977 Chennai, Tamil Nadu",13.0843007,80.2704622,Ice Cream,4.4,37,"Chennai, Tamil Nadu",095855 77786,Delivery
"Famous Stores Chennai, Tamil Nadu",13.0794926,80.2577144,General store,,,"Chennai, Tamil Nadu",044 4260 2048,Delivery
"TamilNadu Cloth Store and Dresses Chennai, Tamil Nadu",12.9265691,80.1150865,Clothing store,3.4,25,"Chennai, Tamil Nadu",044 2226 6303,Delivery
"Madurai Famous Jigarthanda LLP - Since 1977 Mathur, Vallakkottai, Tamil Nadu",12.8829951,79.9340251,Ice Cream,4.7,3,"Mathur, Vallakkottai, Tamil Nadu",099620 17682,Takeaway
"Tamilnadu Super Market Chennai, Tamil Nadu",12.9746113,80.219609,Supermarket,4.1,606,"Chennai, Tamil Nadu",044 2259 1295,Delivery
"Madurai Famous Jigarthanda LLP - Since 1977 Chennai, Tamil Nadu",13.0843007,80.2704622,Ice Cream,4,27,"Chennai, Tamil Nadu",090479 88767,"Dine-in,Kerbside pickup"
"Famous Super Bazaar Chennai, Tamil Nadu",13.0973959,80.2311994,Grocery store,4.8,4,"Chennai, Tamil Nadu",097908 38955,Delivery
"Madurai Famous Jigarthanda Chennai, Tamil Nadu",13.0843007,80.2704622,Ice Cream,4.4,29,"Chennai, Tamil Nadu",073959 78143,"Dine-in,Takeaway"
"Madurai Famous Jigarthanda LLP - Since 1977 Chennai, Tamil Nadu",13.0843007,80.2704622,Ice Cream,5,9,"Chennai, Tamil Nadu",090039 12060,"Dine-in,Drive-through"
"Nexus Vijaya Mall Chennai, Tamil Nadu",13.0498937,80.2095018,Shopping mall,4.4,110000,"Chennai, Tamil Nadu",044 4904 9000,
"Madurai Famous Jigarthanda LLP - Since 1977 Chennai, Tamil Nadu",13.0843007,80.2704622,Ice Cream,5,3,"Chennai, Tamil Nadu",,"Dine-in,Kerbside pickup"
"Tamilnadu Departmental Stores Chennai, Tamil Nadu",12.997772,80.2676581,Department store,4.4,32,"Chennai, Tamil Nadu",044 2491 5720,Delivery
"Madurai Famous Jigarthanda LLP - Since 1977 Chengalpattu, Tamil Nadu",12.5268336,80.0087746,Ice Cream,3.7,12,"Chengalpattu, Tamil Nadu",098948 57793,Delivery
"Madurai Famous Jigarthanda LLP - Since 1977 Guduvancheri, Tamil Nadu",9.9252007,78.1197754,Ice Cream,1.6,34,"Guduvancheri, Tamil Nadu",093845 85463,"Dine-in,Drive-through"
"Kishkinta Dresses Chennai, Tamil Nadu",12.9265967,80.1155472,Dress store,3.9,1100,"Chennai, Tamil Nadu",044 2226 2877,Delivery
"Old Curiosity Shop Chennai, Tamil Nadu",13.0617314,80.2628819,Antique store,4.5,184,"Chennai, Tamil Nadu",,
"Madurai Famous Jigarthanda LLP - Since 1977 Chennai, Tamil Nadu",13.0843007,80.2704622,Ice Cream,4.3,28,"Chennai, Tamil Nadu",094440 52320,"In-store shopping,Delivery"
"Saravana Stores Gold Palace and Textiles Chennai, Tamil Nadu",13.0374665,80.2280357,Clothing store,3.9,8400,"Chennai, Tamil Nadu",044 2431 4242,Delivery
"Bharatham Stores Chennai, Tamil Nadu",12.9231275,80.1185725,Furniture store,4,2300,"Chennai, Tamil Nadu",094450 25676,
"Tamilnadu Shopping Coimbatore, Tamil Nadu",11.0521164,76.9577829,E-commerce service,4.7,32,"Coimbatore, Tamil Nadu",083057 83057,Delivery
"Madurai Famous Jigarthanda Egattur, Tamil Nadu",12.8359213,80.2297784,Ice Cream,3.8,15,"Egattur, Tamil Nadu",098421 16684,"Dine-in,Takeaway"
"Madurai Famous Jigarthanda LLP - Since 1977 Chennai, Tamil Nadu",13.0843007,80.2704622,Ice Cream,4.5,12,"Chennai, Tamil Nadu",075063 74003,"Dine-in,Drive-through"
"FOUNTAIN PLAZA Chennai, Tamil Nadu",13.0682016,80.2562557,Shopping mall,3.9,1700,"Chennai, Tamil Nadu",098842 79185,On-site services
"Madurai Famous Jigarthanda LLP - Since 1977 Singaperumal Koil, Tamil Nadu",9.9252007,78.1197754,Ice Cream,5,2,"Singaperumal Koil, Tamil Nadu",063745 98260,"Dine-in,Drive-through"
"Balasubramanian Enterprises Pvt. Ltd. Chennai, Tamil Nadu",12.9849835,80.1885331,Shopping mall,4.1,988,"Chennai, Tamil Nadu",094450 00001,
"Fantastic Jeyachandran Chennai, Tamil Nadu",12.9213919,80.1975877,Clothing store,4,32000,"Chennai, Tamil Nadu",099412 72727,
"Grand Square Chennai, Tamil Nadu",12.9719724,80.2203988,Shopping mall,4,38000,"Chennai, Tamil Nadu",1800 4253 1111,
"Brookefields Mall Coimbatore, Tamil Nadu",11.0092555,76.9590555,Shopping mall,4.4,83000,"Coimbatore, Tamil Nadu",,
"Famous Jigarthanda Rajakilpakkam, Tamil Nadu",12.9228636,80.1528835,Coffee shop,3.4,23,"Rajakilpakkam, Tamil Nadu",098421 16684,"Dine-in,Takeaway"
"Madurai city famous jigarthanda.. Chennai, Tamil Nadu",13.0641665,80.2143413,Ice Cream,3.6,15,"Chennai, Tamil Nadu",,Delivery
"Madurai Famous Jigarthanda LLP - Since 1977 Chennai, Tamil Nadu",13.0843007,80.2704622,Ice Cream,4.3,3,"Chennai, Tamil Nadu",090479 88767,"Dine-in,Drive-through"
Tamilnadu Shopping Center Tamil Nadu,8.0905931,77.5493098,General store,3.8,29,Tamil Nadu,094873 72179,"In-store pick-up,Delivery"
"Madurai City Famous jigarthanda Chennai, Tamil Nadu",13.0641665,80.2143413,Ice Cream,4.3,4,"Chennai, Tamil Nadu",,Delivery
"Palaniappa Textiles & Readymades Chennai, Tamil Nadu",12.9506999,80.1449648,Clothing store,4.1,512,"Chennai, Tamil Nadu",044 2265 4589,Delivery
"Madurai Famous Jigarthanda LLP - Since 1977 Rajakilpakkam, Chennai, Tamil Nadu",12.9177246,80.1556572,Ice Cream,4.6,8,"Rajakilpakkam, Chennai, Tamil Nadu",090479 88767,"In-store shopping,In-store pick-up"
"Madurai Famous Jigarthanda LLP - since 1977 Thiruporur, Tamil Nadu",12.7268604,80.1883765,Ice Cream,5,5,"Thiruporur, Tamil Nadu",090479 88767,Delivery
"Madurai Famous Jigarthanda LLP - Since 1977 Sriperumbudur, Tamil Nadu",9.9252007,78.1197754,Ice Cream,5,4,"Sriperumbudur, Tamil Nadu",090422 78025,"Dine-in,Takeaway"
"Ramee Mall Chennai, Tamil Nadu",13.0431252,80.2484821,Shopping mall,3.8,7900,"Chennai, Tamil Nadu",,
"SARATHAS Theppakulam, Tamil Nadu",10.8265263,78.69633,Clothing store,4.2,15000,"Theppakulam, Tamil Nadu",063839 80025,
"Nellai Stores Chennai, Tamil Nadu",13.0843007,80.2704622,General store,4.2,319,"Chennai, Tamil Nadu",090949 61126,
"Mani Kadai Chennai, Tamil Nadu",12.9213221,80.1137026,Indian grocery store,4.1,38,"Chennai, Tamil Nadu",,Delivery
"Parasakthi Departmental Store Chennai, Guduvancheri, Tamil Nadu",12.8474361,80.0625766,Grocery store,4.1,623,"Chennai, Guduvancheri, Tamil Nadu",088831 00007,
"Madurai Famous Jigarthanda - Pammal Chennai, Tamil Nadu",12.9768638,80.142379,Ice Cream,4,12,"Chennai, Tamil Nadu",070129 25315,Delivery
"Saravana Stores Elite Gold - Tambaram Chennai, Tamil Nadu",12.9343267,80.1250274,Jewelry store,4.8,19000,"Chennai, Tamil Nadu",044 2241 6060,Delivery
"Danish Display Kodaikanal, Tamil Nadu",10.2357213,77.493226,Craft store,4.3,640,"Kodaikanal, Tamil Nadu",098421 42495,"In-store pick-up,Delivery"
"Lifestyle Stores Chennai, Tamil Nadu",13.0843007,80.2704622,Clothing store,4.1,783,"Chennai, Tamil Nadu",1800 123 1555,"In-store pick-up,Delivery"
"Syed's muttai mittai Chengalpattu, Tamil Nadu",12.7179386,79.98126,Sweet shop,4.4,99,"Chengalpattu, Tamil Nadu",,
"Madurai Famous Jigarthanda LLP - Since 1977 Chennai, Tamil Nadu",13.0843007,80.2704622,Ice Cream,4.2,5,"Chennai, Tamil Nadu",090479 88767,"Dine-in,Kerbside pickup"
"GOLDEN TEX Chennai, Tamil Nadu",13.0510664,80.0954275,Clothing store,4.1,248,"Chennai, Tamil Nadu",075500 26989,Delivery
"Best Choice Store Kattankulathur, Tamil Nadu",12.8088576,80.0286556,Shopping mall,5,2,"Kattankulathur, Tamil Nadu",,
"Nalam Angadi Chennai, Tamil Nadu",12.9421807,80.1423709,Grocery store,4,326,"Chennai, Tamil Nadu",044 2223 3555,"In-store shopping,In-store pick-up"
"Budget Fashions Guduvancheri, Tamil Nadu",12.8320904,80.0711208,Clothing supplier,4.9,273,"Guduvancheri, Tamil Nadu",090927 09709,"In-store shopping,In-store pick-up"
"Aaladipattiyan Karupatti coffee Chennai, Tamil Nadu",12.871314,80.0767364,Coffee shop,4.3,2400,"Chennai, Tamil Nadu",,"Dine-in,Drive-through"
"Chandra Metro Mall Chennai, Tamil Nadu",13.0467637,80.1904012,Shopping mall,4,14000,"Chennai, Tamil Nadu",097899 37575,
"Amaravathi Sweets And Snacks Guduvancheri, Tamil Nadu",12.8466286,80.0620498,Sweet shop,4.4,457,"Guduvancheri, Tamil Nadu",098402 49774,Delivery
"Amaravathi Sweets And Snacks Guduvancheri, Tamil Nadu",12.8466286,80.0620498,Sweet shop,4.4,457,"Guduvancheri, Tamil Nadu",098402 49774,Delivery
"Madurai Famous Jigarthanda LLP - Since 1977 Kanchipuram, Tamil Nadu",12.8372508,79.7041749,Ice Cream,1.7,3,"Kanchipuram, Tamil Nadu",088253 09005,"Dine-in,Drive-through"
"VR Chennai Chennai, Tamil Nadu",13.0805465,80.197132,Shopping mall,4.5,87000,"Chennai, Tamil Nadu",044 6670 5555,
Sri Krishna Sweets Tamil Nadu,11.1271225,78.6568942,Sweet shop,4,709,Tamil Nadu,1800 890 2202,
"Sakyaa Chennai, Tamil Nadu",12.9219658,80.162808,Boutique,4.8,154,"Chennai, Tamil Nadu",073054 75599,"In-store shopping,In-store pick-up"
"Madurai Famous Jigarthanda LLP - Since 1977 Chengalpattu, Tamil Nadu",12.5268336,80.0087746,Ice Cream,,,"Chengalpattu, Tamil Nadu",098948 57793,"Dine-in,Takeaway"
"Madurai Famous Jigarthanda LLP - Since 1977 Chennai, Tamil Nadu",13.0843007,80.2704622,Ice Cream,,,"Chennai, Tamil Nadu",,"Dine-in,Takeaway"
"The Raymond shop Chennai, Tamil Nadu",13.0843007,80.2704622,Clothing store,3.8,417,"Chennai, Tamil Nadu",044 2241 6634,"In-store shopping,Delivery"
"PROZONE MALL Coimbatore, Tamil Nadu",11.0547682,76.9941106,Shopping mall,4.3,47000,"Coimbatore, Tamil Nadu",0422 662 8111,
"GRT Jewellers, Tambaram Chennai, Tamil Nadu",12.935354,80.1260821,Jewelry store,4.8,64000,"Chennai, Tamil Nadu",044 2221 1515,
"Madurai Famous Jigarthanda LLP - Since 1977 Chengalpattu, Tamil Nadu",12.5268336,80.0087746,Ice Cream,,,"Chengalpattu, Tamil Nadu",088253 09005,"Dine-in,Drive-through"
"Madurai Famous Jigarthanda LLP - Since 1977 Thoraipakkam, Tamil Nadu",12.9489368,80.1920373,Ice Cream,1,3,"Thoraipakkam, Tamil Nadu",090479 88767,"Kerbside pickup,Delivery"
"RAJA STORE PERAMBALUR Perambalur, Tamil Nadu",11.2360838,78.8646679,Saree Shop,3.9,305,"Perambalur, Tamil Nadu",,"In-store shopping,Delivery"
"Rathna Stores (Gowrivakkam) Chennai, Tamil Nadu",12.9206939,80.1693436,Appliance store,4.2,404,"Chennai, Tamil Nadu",095140 51212,Delivery
"Sri Ambal Stores Chennai, Tamil Nadu",12.918724,80.195473,Appliance store,4.2,1100,"Chennai, Tamil Nadu",080727 75698,Delivery
"K.Ramu Poo Kadai Singaperumal Koil, Tamil Nadu",12.7615279,80.0033757,Flower designer,5,44,"Singaperumal Koil, Tamil Nadu",094442 58315,
"Aravind Bakery Maraimalai Nagar, Tamil Nadu",12.7950624,80.0263511,Bakery and Cake Shop,4.1,663,"Maraimalai Nagar, Tamil Nadu",099404 88498,Delivery
"Jeyachandran Textiles Chennai, Tamil Nadu",13.0843007,80.2704622,Clothing store,3.8,1900,"Chennai, Tamil Nadu",044 2433 9971,"In-store shopping,Delivery"
"Jayalakshmi Stores Chennai, Tamil Nadu",13.0345356,80.1559984,Grocery store,4.7,133,"Chennai, Tamil Nadu",099411 45690,Delivery
"Kani Stores Chennai, Tamil Nadu",13.0843007,80.2704622,Grocery store,3.8,10,"Chennai, Tamil Nadu",099401 30259,In-store shopping
"kk supermarket Kayarambedu, Tamil Nadu",12.8158839,80.076629,Grocery store,3.9,76,"Kayarambedu, Tamil Nadu",094437 89315,Delivery
"Selection Readymades & Textiles Chengalpattu, Tamil Nadu",12.6942329,79.9761149,Clothing store,3.9,50,"Chengalpattu, Tamil Nadu",099945 88450,Delivery
"Village Special native Sweets & snacks Chennai, Tamil Nadu",12.9203721,80.1864371,Indian sweets shop,4.6,42,"Chennai, Tamil Nadu",075488 78838,
"Fashion shop tnagar Chennai, Tamil Nadu",13.0377266,80.2332148,Clothing store,4.3,4,"Chennai, Tamil Nadu",,
"Jeyam Vegetables Maraimalai Nagar, Tamil Nadu",12.7943055,80.026144,Fruit and vegetable store,4.1,372,"Maraimalai Nagar, Tamil Nadu",099402 44159,
"Lava Cakes Chennai, Tamil Nadu",12.9678311,80.246737,Bakery and Cake Shop,4.2,1500,"Chennai, Tamil Nadu",090030 63010,"Dine-in,Takeaway"
"R.K.NATURAL OILS & SNACKS Chennai, Tamil Nadu",12.8737048,80.2430707,Store,4.8,66,"Chennai, Tamil Nadu",,
"Hamleys Chennai, Tamil Nadu",13.0843007,80.2704622,Toy store,4.2,3100,"Chennai, Tamil Nadu",096192 04490,"In-store pick-up,Delivery"
"Sri Krishna sweets Chennai, Tamil Nadu",13.0843007,80.2704622,Sweet shop,4.2,621,"Chennai, Tamil Nadu",044 4957 7187,"In-store pick-up,Delivery"
"SS STORES WHOLE SALE AND RETAIL Chennai, Tamil Nadu",12.913003,80.191768,Indian grocery store,4.8,30,"Chennai, Tamil Nadu",,
"Thiraviyam Coffee Shop Chennai, Tamil Nadu",12.9808356,80.1883527,Cafe,4.2,591,"Chennai, Tamil Nadu",,"Dine-in,Kerbside pickup"
"Renasci Fashion House Chennai, Tamil Nadu",13.0587199,80.2475934,Boutique,4.7,82,"Chennai, Tamil Nadu",098847 62192,"In-store shopping,Delivery"
"Titan World Chennai, Tamil Nadu",13.0334144,80.1609204,Watch store,4.8,12000,"Chennai, Tamil Nadu",086577 85296,
"Madurai Famous Jigarthanda Chennai, Tamil Nadu",13.0843007,80.2704622,Auto parts store,,,"Chennai, Tamil Nadu",,
"Sundaram Stores Sriperumbudur, Tamil Nadu",12.9491827,79.942985,Store,4.2,5,"Sriperumbudur, Tamil Nadu",,Delivery
"Sriram & Co. Chennai, Tamil Nadu",12.9267014,80.1172594,Stationery store,4.2,1800,"Chennai, Tamil Nadu",081246 24060,
"Chocomans Chennai, Tamil Nadu",13.0843007,80.2704622,Cake shop,4.3,591,"Chennai, Tamil Nadu",072999 24242,
"Priya Enterprises Chennai, Tamil Nadu",12.9125161,80.1439122,Stationery store,4.1,1200,"Chennai, Tamil Nadu",094440 81317,Delivery
"Aladipattiyan Karupatti Coffee - Padappai Pushpagiri, Tamil Nadu",12.8923826,80.0415527,Coffee shop,4.3,603,"Pushpagiri, Tamil Nadu",,"Dine-in,Takeaway"
"Shri Iyyan Sweets and Bakery Chengalpattu, Tamil Nadu",12.6937606,79.9791209,Bakery and Cake Shop,4.1,524,"Chengalpattu, Tamil Nadu",,
"Chillax bakery, Tambaram Corporation Mudichur, Tamil Nadu",12.9156778,80.0763877,Bakery and Cake Shop,4.2,820,"Mudichur, Tamil Nadu",,Delivery
"SATHYA DEPARTMENTAL STORES Thathaiyangarpet, Tamil Nadu",11.1213215,78.44881,Grocery store,4.2,49,"Thathaiyangarpet, Tamil Nadu",098949 65045,"In-store shopping,Delivery"
"NAZA Boutique Chennai, Tamil Nadu",12.9584076,80.1437875,Clothing store,4.3,119,"Chennai, Tamil Nadu",098401 19159,Delivery
"Nilgiri's Chennai, Tamil Nadu",12.843314,80.227142,Supermarket,4,589,"Chennai, Tamil Nadu",,"In-store pick-up,Delivery"
"DailyPick Supermarket Kattankulathur, Tamil Nadu",12.8084098,80.0358119,Grocery store,4.6,27,"Kattankulathur, Tamil Nadu",072730 05004,
"Guna Sukku Coffee Center Manampathy, Tamil Nadu",12.6562349,80.1177491,Cafe,4.5,455,"Manampathy, Tamil Nadu",,
"Easy 2 Wear Chennai, Tamil Nadu",13.0612135,80.246769,Plus Size Clothing Store,4.2,782,"Chennai, Tamil Nadu",090422 92098,"In-store shopping,In-store pick-up"
"Kodai Chocolate Factory Kodaikanal, Tamil Nadu",10.2190392,77.4783102,Chocolate factory,4.1,539,"Kodaikanal, Tamil Nadu",098421 98894,
"Aruna Stores Chennai, Tamil Nadu",13.0843007,80.2704622,Grocery store,3.2,22,"Chennai, Tamil Nadu",,Delivery
"Royaloak Furniture Velachery Chennai, Tamil Nadu",12.9549315,80.2122048,Furniture store,4.2,3100,"Chennai, Tamil Nadu",063665 31938,"In-store shopping,In-store pick-up"
"Monicaa Aquarium Chennai, Tamil Nadu",12.9214579,80.1435031,Pet store,4.2,624,"Chennai, Tamil Nadu",098402 65824,Delivery
"Senthil Sweet Chennai, Adhanur, Tamil Nadu",12.8696375,80.0585156,Indian sweets shop,3.9,68,"Chennai, Adhanur, Tamil Nadu",,
"Blossom Fancy Costumes Chennai, Tamil Nadu",12.9141422,80.0897129,Costume store,3.9,191,"Chennai, Tamil Nadu",086103 52041,"In-store pick-up,Delivery"
"LAKSHMI HOT PUFFS Perungalathur, Tamil Nadu",12.8910583,80.0701943,Bakery and Cake Shop,4.1,945,"Perungalathur, Tamil Nadu",099520 29993,"Dine-in,Takeaway"
"Gramathu Thinpandam Chennai, Tamil Nadu",12.9461735,80.2002185,Bakery and Cake Shop,4.8,17,"Chennai, Tamil Nadu",095511 11154,
"P.S. Pandian Home Needs Chennai, Tamil Nadu",12.9860245,80.1924392,General store,4.3,188,"Chennai, Tamil Nadu",090039 31865,
"Kumar Sweets Chennai, Tamil Nadu",13.0349237,80.1563029,Sweet shop,3.8,86,"Chennai, Tamil Nadu",095661 77539,Delivery
"Famous Lining Works Chennai, Tamil Nadu",12.928758,80.2016002,Helmet Shop,4.4,5,"Chennai, Tamil Nadu",099413 78008,
"Nalli Silk Sarees at Mylapore Chennai, Tamil Nadu",13.0376859,80.2649603,Clothing store,4.2,760,"Chennai, Tamil Nadu",080958 77789,"In-store shopping,In-store pick-up"
"Nakoda Thangamaligai Chennai, Tamil Nadu",12.9812895,80.1882149,Jewelry store,4.5,408,"Chennai, Tamil Nadu",,Delivery
"VASANTH & CO Chennai, Tamil Nadu",13.0843007,80.2704622,Appliance store,3.5,551,"Chennai, Tamil Nadu",,Delivery
"IMAYAM PACKAGES Chennai, Tamil Nadu",12.961442,80.1312985,Packaging company,4.8,294,"Chennai, Tamil Nadu",097905 97788,"On-site services,Online appointments"
"The Cake Smith Guduvancheri, Tamil Nadu",12.842998,80.05906,Bakery and Cake Shop,4.1,1300,"Guduvancheri, Tamil Nadu",086789 11234,"In-store pick-up,Delivery"
"Singapore shopping Plaza Guduvancheri, Tamil Nadu",12.8460441,80.0614849,Shoe store,5,1,"Guduvancheri, Tamil Nadu",,
"Avi Mart Thirunagar Colony, Tamil Nadu",11.3530478,77.725196,Grocery store,4.5,108,"Thirunagar Colony, Tamil Nadu",088259 66162,"In-store shopping,In-store pick-up"
"Nava Cakes Singaperumal Koil, Tamil Nadu",12.7615281,80.0028916,Cake shop,4.4,67,"Singaperumal Koil, Tamil Nadu",087603 39339,"Dine-in,Kerbside pickup"
"KPM Minerals & Tiles (Tile Dealers/Tiles Showroom/Granites/Marbles) Singaperumal Koil, Tamil Nadu",12.7654938,80.0336901,Tile store,4.4,76,"Singaperumal Koil, Tamil Nadu",098412 57250,"In-store shopping,Delivery"
"Cream and Fudge urapakkam Chennai, Tamil Nadu",12.8630082,80.0741322,Ice Cream,3.8,243,"Chennai, Tamil Nadu",099629 24009,"Dine-in,Takeaway"
"Sri Ganapathy Sweets & Bakery Chennai, Tamil Nadu",12.9065825,80.1439462,Bakery and Cake Shop,4.3,122,"Chennai, Tamil Nadu",,Delivery
"Sathya's Chennai, Tamil Nadu",12.9624426,80.160681,Appliance store,4.3,280,"Chennai, Tamil Nadu",098847 93010,
"Bismi Book Centre chrompet ( Radha nagar) Chennai, Tamil Nadu",12.9525838,80.1432631,Book store,4.3,149,"Chennai, Tamil Nadu",090949 58876,
"Shalimar Weaves Kodaikanal, Tamil Nadu",10.2353679,77.4921463,Clothing Accessories Store,4.2,72,"Kodaikanal, Tamil Nadu",094430 48807,"In-store shopping,Delivery"
"Native Famous Chennai, Tamil Nadu",12.9735055,80.1973917,Sweet shop,5,3,"Chennai, Tamil Nadu",099944 21116,
"Ayyanar Provisional Store Chennai, Tamil Nadu",13.0843007,80.2704622,General store,4.2,6,"Chennai, Tamil Nadu",,Delivery
"Backiyam store,Arockiyam store Chennai, Tamil Nadu",12.9192044,80.1134461,Store,5,3,"Chennai, Tamil Nadu",,
Dream Box - Home Made Cake Shop Tamil Nadu,12.8609264,80.0780563,Bakery and Cake Shop,5,234,Tamil Nadu,,
"Famous Bombay Kulfis Chennai, Tamil Nadu",12.9885856,80.1953443,Ice Cream,4,2,"Chennai, Tamil Nadu",063744 78929,
"FJ FAMOUS JIGARTHANDA Guduvancheri, Tamil Nadu",12.8445241,80.0600941,Ice Cream,,,"Guduvancheri, Tamil Nadu",093845 85463,
"Mall De Goa Penha de Franc, Goa",15.5258252,73.8271347,Shopping mall,4.2,30000,"Penha de Franc, Goa",0832 241 3010,
"Shenaz Shopping Centre Panaji, Goa",15.488092,73.81845,Supermarket,4,224,"Panaji, Goa",0832 564 9009,Delivery
"Palolem Market Canacona, Goa",15.0117994,74.021552,Market,4.3,537,"Canacona, Goa",,On-site services
"The Flame Store Candolim, Goa",15.5238242,73.7667709,Designer Clothing Store,4.3,198,"Candolim, Goa",086690 87239,"In-store shopping,In-store pick-up"
"Rangeela Goa Assagao, Goa",15.5968343,73.7855639,Clothing store,4.5,385,"Assagao, Goa",077967 04054,"In-store shopping,In-store pick-up"
M.M.C New Market Goa,15.2715854,73.9596776,Clothing store,3.7,6100,Goa,,On-site services
"Mario Gallery Carmona, Goa",15.2014393,73.9521249,Souvenir store,4.4,622,"Carmona, Goa",093714 67030,"In-store shopping,In-store pick-up"
"Bombay Bazar Panaji, Goa",15.4978656,73.8262921,Clothing store,3.7,1900,"Panaji, Goa",,Delivery
"AND Caculo Mall Panaji, Goa",15.4865613,73.8179472,Western apparel store,4.1,725,"Panaji, Goa",091759 44895,
"Shoppers Stop Penha de Franc, Goa",15.5253574,73.8273229,Clothing store,4.1,1000,"Penha de Franc, Goa",0832 240 8026,"In-store pick-up,Delivery"
"Feblix Madgaon, Goa",15.271161,73.9595868,Clothing store,3.9,1900,"Madgaon, Goa",,On-site services
"Tibetan Market Manali, Goa",32.2431872,77.1891761,Market,3.9,2300,"Manali, Goa",,
"Goa Market Panaji, Goa",15.498795,73.8225877,Market,4.1,437,"Panaji, Goa",,
"Sawal's Goa Shopping Centre Old Goa, Goa",15.5016657,73.9098613,Clothing store,4.1,14,"Old Goa, Goa",,
"Good Karma Treasure Shop Vagator, Goa",15.5931823,73.7520434,Second hand store,4.7,92,"Vagator, Goa",079722 46605,"In-store shopping,In-store pick-up"
"The Good Life Goa Panaji, Goa",15.4971604,73.8319587,Designer Clothing Store,4.9,51,"Panaji, Goa",,"In-store shopping,In-store pick-up"
"THE FLAME STORE ASSAGAO Assagao, Goa",15.5972579,73.7860874,Designer Clothing Store,4.6,37,"Assagao, Goa",,
"Jeans Shoppe Panaji, Goa",15.4974155,73.825525,Clothing store,4.8,193,"Panaji, Goa",080555 53121,In-store pick-up
"AND Mall De Goa Porvorim, Goa",15.5258767,73.8273303,Western apparel store,4.8,67,"Porvorim, Goa",091361 25715,Delivery
"Zantye's - Factory Outlet Panaji, Goa",15.4968905,73.8241633,Dry Fruit Store,4.3,997,"Panaji, Goa",0832 222 5144,
"Paper Boat Collective, Goa Sangolda, Goa",15.5434626,73.8125313,Boutique,4.4,287,"Sangolda, Goa",075074 70248,On-site services
"Sawaikar's Goan Cashews And Dry Fruits- Best Cashews in Goa Porvorim, Aradi Socorro, Goa",15.5396846,73.8168668,Dry Fruit Store,4.8,248,"Porvorim, Aradi Socorro, Goa",088066 18080,In-store shopping
"Goa Stories Panaji, Goa",15.5004827,73.827706,Souvenir store,5,7,"Panaji, Goa",,
"Caculo Mall Panaji, Goa",15.4864378,73.8178846,Shopping mall,3.9,10000,"Panaji, Goa",,In-store shopping
"Goa souvenir Handicraft Naveli, Goa",15.2766495,73.9170997,Shopping mall,4,15,"Naveli, Goa",,
"Big G Madgaon, Goa",15.272464,73.9627731,Shopping mall,3.2,1000,"Madgaon, Goa",,On-site services
"Tibetan Handicraft and souvenirs market Baga, Goa",15.5547145,73.7567691,Gift shop,4.1,55,"Baga, Goa",,
"Sacha's Shop Panaji, Goa",15.4961814,73.8254345,Designer Clothing Store,4.2,51,"Panaji, Goa",0832 222 2035,On-site services
"Mario Gallery Panaji, Goa",15.499623,73.8263572,Souvenir store,4.5,77,"Panaji, Goa",0832 242 1776,In-store shopping
"BODGOA Naveli, Goa",15.2645169,73.9594426,Boutique,4.4,16,"Naveli, Goa",,In-store shopping
"Mario Gallery Madgaon, Goa",15.2760225,73.9632886,Souvenir store,4.3,476,"Madgaon, Goa",0788 731 3875,"In-store shopping,In-store pick-up"
"Goa Shopping Centre Vasco Da Gama, Goa",15.3988931,73.8128136,Novelty store,3.6,16,"Vasco Da Gama, Goa",093710 35137,
"Goa Bazaar Hypermarket Old Goa, Goa",15.4980423,73.9210759,Hypermarket,4.1,398,"Old Goa, Goa",077868 08808,"In-store shopping,In-store pick-up"
"S. D. Prabhu Salgaonker & Sons Mapusa, Goa",15.5887195,73.8121078,Clothing store,4.9,42,"Mapusa, Goa",098224 88811,"In-store shopping,Delivery"
O.M.O Panaji,15.4991909,73.8329337,Clothing store,4.4,88,Panaji,0832 223 0353,
"MALL DE GOA Shop no. 12 First Floor Penha de Franc, Goa",15.5303183,73.8406616,Jewelry store,4.3,20,"Penha de Franc, Goa",,
"Mapusa Municipal Market Mapusa, Goa",15.588477,73.8121308,Market,3.9,23000,"Mapusa, Goa",0832 226 2203,
"Saum Boutique Panaji, Goa",15.4943196,73.821551,Boutique,4.8,29,"Panaji, Goa",095117 21485,"In-store shopping,In-store pick-up"
"Anjuna Flea Market Anjuna, Goa",15.572076,73.7423905,Market,4,1600,"Anjuna, Goa",,On-site services
"Shree Krishna Cashews and Zantyes Cashew Panaji, Goa",15.4987495,73.8229636,Dry Fruit Store,4.2,250,"Panaji, Goa",,"In-store pick-up,Delivery"
"Sosas Panaji, Goa",15.4979712,73.8321854,Clothing store,4.1,22,"Panaji, Goa",,"In-store shopping,Kerbside pickup"
"Arpora Saturday Nite Bazaar Saturday Market Arpora, Goa",15.5678619,73.7660795,Shopping mall,4,372,"Arpora, Goa",,
"Umiya Mercado Madgaon, Goa",15.2645235,73.9502706,Shopping mall,4.1,1400,"Madgaon, Goa",0832 254 0334,
"Simonia Stores Mapusa, Goa",15.5883726,73.8114755,Bakery and Cake Shop,4.3,263,"Mapusa, Goa",096073 51182,"Takeaway,Delivery"
Akbar Store Goa,15.4988728,73.8226853,Clothing store,4.7,18,Goa,098221 47115,
"Galleria of Gem's Goa - Best Jewellery shops in cavelossim | Diamond Jewellery in Cavelossim | Pashmina Shops in Cavelossim Mobor Beach, Goa",15.1741353,73.9461831,Jewelry store,5,16,"Mobor Beach, Goa",,Delivery
"Anjuna market Anjuna, Goa",15.5870153,73.7420698,Beach clothing store,3.9,13,"Anjuna, Goa",,
"Pastry Cottage Panaji, Goa",15.4968327,73.8259678,Cafe,3.9,236,"Panaji, Goa",084462 55674,"Dine-in,Takeaway"
"BHAVANA SWEET MART Madgaon, Goa",15.2699965,73.9646368,Sweet shop,4.9,19,"Madgaon, Goa",092842 01335,"In-store shopping,Delivery"
"Margao Market Madgaon, Goa",15.274736,73.957112,Market,4.1,444,"Madgaon, Goa",,
"The Goa Collective Bazar Vagator, Goa",15.5931492,73.7423552,Market,4.5,118,"Vagator, Goa",,On-site services
"Swaruchi Boutique Kncept Madgaon, Goa",15.2829188,73.9658106,Women's clothing store,4.2,285,"Madgaon, Goa",079726 56040,"In-store shopping,In-store pick-up"
"THE SMOKE EXPERIENCE Calangute, Goa",15.5348846,73.7640749,Hookah store,5,346,"Calangute, Goa",0788 777 7866,"In-store shopping,Kerbside pickup"
Donapaula Market Goa,15.4599157,73.8037477,Market,3.7,143,Goa,,
"Cotton Village Panaji, Goa",15.4996779,73.8264448,Clothing store,4.3,23,"Panaji, Goa",096070 08886,Delivery
"Sweet Nation Panaji, Goa",15.493062,73.8192384,Indian sweets shop,4.5,1300,"Panaji, Goa",096070 09374,"Dine-in,Takeaway"
"Old Goa Shoping Center Old Goa, Goa",15.4994865,73.909344,Saree Shop,4,1,"Old Goa, Goa",084593 77284,In-store shopping
"Goa Selection | Casino DressCode, Shoes Hawai Shirts, Goa Print Clothes for men & women | Panaji, Goa",15.5007928,73.8289434,Clothing store,4.7,3,"Panaji, Goa",,Delivery
"Louis Philippe - Mall De Goa Bardez, Goa",15.525843,73.827305,Men's clothing store,3.9,37,"Bardez, Goa",0832 241 3081,"In-store shopping,Delivery"
"Curves Goa Calangute, Goa",15.5341534,73.7640777,Boutique,4.1,47,"Calangute, Goa",099759 61035,
"Agassaim Sausages, 4Brothers sausages & pork meat Agaçaim, Goa",15.4354616,73.8947896,Store,4.5,133,"Agaçaim, Goa",,
"Anand Store Mardol, Goa",15.4412001,73.9743154,Sweet shop,4.6,49,"Mardol, Goa",0832 234 3792,Delivery
"Goa Kaju Panaji, Goa",15.4975407,73.8358643,Dry Fruit Store,4.7,64,"Panaji, Goa",099236 33433,
"Goan Boutique Dona Paula, Goa",15.4518903,73.8031458,Clothing store,4,2,"Dona Paula, Goa",094220 58197,"In-store shopping,Delivery"
"Mr Baker 1922 Panaji, Goa",15.4997226,73.8287759,Bakery and Cake Shop,4.3,554,"Panaji, Goa",097304 86959,"Dine-in,Kerbside pickup"
"Govind General Store Vodlemol Cacora, Goa",15.239587,74.1227267,General store,4.2,28,"Vodlemol Cacora, Goa",080876 61121,
"Confeitaria 31 De Janeiro Panaji, Goa",15.4975154,73.8313873,Bakery and Cake Shop,4.3,1500,"Panaji, Goa",0832 222 5791,
"Goa Fashion Madgaon, Goa",15.2750593,73.9582498,Clothing Accessories Store,5,4,"Madgaon, Goa",093250 64932,In-store shopping
"Carasid Bakery Panaji, Goa",15.4828506,73.8114048,Cake shop,4.1,396,"Panaji, Goa",095183 49675,"Dine-in,Takeaway"
"Velha Goa Galeria Panaji, Goa",15.4955939,73.8316922,Tile store,4.3,112,"Panaji, Goa",0832 242 6628,
"Jila Bakers and confectioners Loutolim, Camorlim, Goa",15.332231,73.9894786,Bakery and Cake Shop,4.5,1300,"Loutolim, Camorlim, Goa",0832 277 7224,"Takeaway,No-contact delivery"
"Shehnai Hall Ponda, Goa",15.3991077,74.0049282,Clothing store,4,72,"Ponda, Goa",,
"The Ghodges Madgaon, Goa",15.2744858,73.9592595,Dry Fruit Store,4.6,22,"Madgaon, Goa",,
"Aunty Maria Panaji, Goa",15.4972056,73.8248365,Coffee shop,4.1,1900,"Panaji, Goa",0832 222 6291,
"FAMOUS WINE STORE Madgaon, Goa",15.2676814,73.9658105,Wine store,5,2,"Madgaon, Goa",,
"Anjona Bakery Btalbhati, Goa",15.3008623,73.9198789,Bakery and Cake Shop,4.1,352,"Btalbhati, Goa",098816 26122,Delivery
"Pastry Palace Madgaon, Goa",15.2859239,73.9786914,Bakery and Cake Shop,4.1,568,"Madgaon, Goa",0832 273 3009,"In-store pick-up,Delivery"
"Calangute Beach Market Calangute, Goa",15.545126,73.7562303,Market,4.2,152,"Calangute, Goa",,
"Big Mishra Pedha Madgaon, Goa",15.2843689,73.9749495,Indian sweets shop,4,225,"Madgaon, Goa",094491 91207,Delivery
"Crossword, Magsons Tower - Campal, Goa Panaji, Goa",15.4874713,73.8131667,Book store,4.3,189,"Panaji, Goa",085302 06759,
"Babka Goa - Coffee Bar | Bakery | Patisserie, Anjuna Anjuna, Goa",15.5877394,73.7621762,Coffee shop,4.4,2000,"Anjuna, Goa",082620 41326,
"Vaz Enterprises Colva Liquor Supermarket Seraulim, Salcete, Goa",15.2790044,73.9334725,Liquor Shop,4.6,1700,"Seraulim, Salcete, Goa",095271 92169,"In-store shopping,Kerbside pickup"
"TukTuk Benaulim, Goa",15.2591649,73.9249404,Boutique,4.5,62,"Benaulim, Goa",090490 17182,
"Mirza Outfit Davarlim, Goa",15.277091,73.9868628,Clothing store,5,121,"Davarlim, Goa",,"In-store shopping,In-store pick-up"
"Gomantak Dry Fruits Panaji, Goa",15.4975611,73.8260312,Dry Fruit Store,4.8,58,"Panaji, Goa",098224 86476,In-store shopping
"HANAMANTH FLOWER'S SHOP Panaji, Goa",15.4970239,73.8358128,Flower market,4,2,"Panaji, Goa",,In-store shopping
"Truffles Cakeshop Panaji, Goa",15.4718046,73.811234,Cake shop,3.9,316,"Panaji, Goa",088883 46619,"In-store pick-up,Delivery"
"Caro Center Madgaon, Goa",15.2722738,73.9577453,Clothing store,3.8,211,"Madgaon, Goa",0832 271 0337,"In-store shopping,Kerbside pickup"
"Luizinha Stores Mapusa, Goa",15.588779,73.811545,Grocery store,4.3,12,"Mapusa, Goa",098234 38751,
"Garrafao - Liquor & Wine Mart Panaji, Goa",15.4890058,73.8192022,Liquor Shop,5,639,"Panaji, Goa",094052 17769,"In-store shopping,Kerbside pickup"
"Literati Bookshop & Cafe Calangute, Goa",15.5312076,73.763455,Book store,4.6,301,"Calangute, Goa",0832 227 7740,"In-store shopping,Kerbside pickup"
"Houses of Goa Museum Penha de Franc, Goa",15.5303209,73.8406749,Museum,4.2,3300,"Penha de Franc, Goa",0832 241 1276,
"German cafe ( CALANGUTE) Calangute, Goa",15.5484656,73.764755,Cafe,4.4,1200,"Calangute, Goa",088942 07238,"Dine-in,Takeaway"
"Salasar Balaji Madgaon, Goa",15.2848384,73.9774999,General store,4.3,220,"Madgaon, Goa",,On-site services
"Cremeux Panaji, Goa",15.5005677,73.8282737,Cafe,4.3,3200,"Panaji, Goa",073502 77197,
"Chitari Heritage Art and Craft Cuncolim, Goa",15.1706808,74.0074989,Craft store,4.4,138,"Cuncolim, Goa",078219 21203,"In-store shopping,In-store pick-up"
"Big Mishra Pedha Madgaon, Goa",15.2843689,73.9749495,Sweet shop,3.8,332,"Madgaon, Goa",,"In-store shopping,Delivery"
"The Shop Pilern, Goa",15.5255202,73.795268,Clothing store,5,10,"Pilern, Goa",,
"Goa Bagayatdar Bazar Sadar Branch Ponda, Goa",15.3957628,74.0038607,Grocery store,4.2,735,"Ponda, Goa",0832 231 2513,
"Caravela Cafe And Bistro Panaji, Goa",15.4997758,73.8316517,Cafe,4.5,2600,"Panaji, Goa",096994 13186,"Dine-in,Takeaway"
"Mario Gallery Salvador du Mundu, Goa",15.5302975,73.8409248,Souvenir store,4.5,197,"Salvador du Mundu, Goa",0832 241 0716,"In-store shopping,In-store pick-up"
"Soul Gems Varca, Goa",15.2382654,73.9424967,Store,4.1,7,"Varca, Goa",,
"Kittys Corner Cashew Nuts & Dry Fruits Madgaon, Goa",15.2718121,73.9570973,Dry Fruit Store,3.2,49,"Madgaon, Goa",,
"Black Vanilla Gourmet Panaji, Goa",15.4926996,73.8178036,Gourmet grocery store,4.2,734,"Panaji, Goa",077190 95550,"Dine-in,Takeaway"
"Alexandra-faye | Fashion Designer Goa Panaji, Goa",15.4959318,73.8238256,Fashion designer,4.8,18,"Panaji, Goa",093093 76560,
"The Coffee Concept Goa Calangute, Goa",15.5341272,73.7642893,Coffee shop,4,93,"Calangute, Goa",099934 67859,"Dine-in,Drive-through"
"Cafe Central Panaji, Goa",15.4979341,73.8270253,Bakery and Cake Shop,4.5,1100,"Panaji, Goa",0832 242 6451,Delivery
"Goa Fashion Boutique Porvorim, Penha de Franc, Goa",15.536607,73.8241423,Clothing store,5,2,"Porvorim, Penha de Franc, Goa",070208 82977,
"Pastry Palace Canacona, Goa",15.0063824,74.0464622,Bakery and Cake Shop,4.4,78,"Canacona, Goa",096735 63850,
"Toms Wine & Liquor Panaji, Goa",15.4986396,73.8233236,Liquor Shop,4.5,972,"Panaji, Goa",093076 78361,"In-store shopping,In-store pick-up"
"St. Ana Bakery Ponda, Goa",15.4012089,74.0131211,Bakery and Cake Shop,4.4,293,"Ponda, Goa",099607 19301,
"Vaz Enterprises Margao Liquor Store Madgaon, Goa",15.2732029,73.9589081,Liquor Shop,4.5,395,"Madgaon, Goa",070284 44804,
"Vishal Mega Mart Madgaon, Goa",15.272296,73.9766335,Hypermarket,3.6,6300,"Madgaon, Goa",072178 88438,
"Borkars Super Stores Madgaon, Goa",15.2800259,73.9774982,Supermarket,3.8,429,"Madgaon, Goa",0832 272 6371,Delivery
"Top Shop Calangute, Goa",15.5455633,73.7593289,Clothing store,3.3,4,"Calangute, Goa",097654 51308,
"The Rasoda, Old Goa - Dine In, Takeaway & Mithai Shop Panaji, Goa",15.4862355,73.9022851,Rajasthani Restaurant,4.3,2800,"Panaji, Goa",084477 43753,"Dine-in,Takeaway"
"GOA SHOPPING STORES Old Goa, Goa",15.5020925,73.9093416,Clothing store,,,"Old Goa, Goa",088679 98179,In-store shopping
"Patnem Chai Shop Canacona, Goa",14.9984814,74.0361089,Cafe,4.7,315,"Canacona, Goa",098815 79189,"Dine-in,Takeaway"
"Gem Stones Canacona, Goa",15.0130672,74.0225843,Jewelry store,5,2,"Canacona, Goa",,In-store shopping
"The liquor club Santemol, Goa",15.2966768,73.9734643,Liquor Shop,4.7,672,"Santemol, Goa",099231 39400,"In-store shopping,Delivery"
"RAJPUROHIT SWEET MART AND DRY FRUITS Madgaon, Goa",15.2720314,73.9700099,Sweet shop,3.7,29,"Madgaon, Goa",,Delivery
"Bakery Pausenbrot Benaulim, Goa",15.2584712,73.9312472,Bakery and Cake Shop,4.4,381,"Benaulim, Goa",084592 71340,"Dine-in,Takeaway"
"Pastry Palace colva Colva, Goa",15.2779602,73.9268845,Bakery and Cake Shop,4.6,21,"Colva, Goa",098229 84978,
"Anand Keni Sweet Mart Mapusa, Goa",15.5885296,73.8112205,Sweet shop,4.1,39,"Mapusa, Goa",0832 225 0361,
"Cocobite Ponda, Goa",15.3330925,74.0208464,Chocolate shop,4.8,65,"Ponda, Goa",090497 76726,"Delivery,No dine-in"
"Babu Tea & Coffee Powder Madgaon, Goa",15.2710911,73.9598785,Tea store,4.2,69,"Madgaon, Goa",088880 50007,"Takeaway,Delivery"
"Big Mishra Pedha ,Jaymalal Sweets Ijorshi, Goa",15.3899065,73.8488835,Sweet shop,4.1,29,"Ijorshi, Goa",,"In-store shopping,In-store pick-up"
"Golden Anchor Margao Liquor Store Madgaon, Goa",15.2780183,73.9759441,Liquor Shop,4.9,92,"Madgaon, Goa",076664 38859,In-store shopping
"1930 Vasco Vasco Da Gama, Goa",15.3970725,73.8129321,Shopping mall,4.1,1400,"Vasco Da Gama, Goa",085519 30011,
"Neselle Bakers Goa. Salvador do Mundo, Goa",15.5318169,73.8573296,Bakery and Cake Shop,4.9,54,"Salvador do Mundo, Goa",093072 26552,
"Lisbon Fancy Store Panaji, Goa",15.498596,73.8282359,Baby clothing store,4,4,"Panaji, Goa",0832 242 1892,
"Eva Cafe Anjuna, Goa",15.5802417,73.7382778,Cafe,4.2,3000,"Anjuna, Goa",073500 55717,
"Baskin Robbins, Candolim Calangute Road Calangute, Goa",15.5342178,73.7641564,Ice Cream,4.2,2200,"Calangute, Goa",098817 74933,
"Star Furniture Goa Nuvem, Madgaon, Goa",15.3091228,73.9522246,Home goods store,5,22,"Nuvem, Madgaon, Goa",,
"Broadway Book Centre Panaji, Goa",15.4948628,73.8207173,Book store,4.4,614,"Panaji, Goa",098224 88564,
"Filipino's Mini Mart In Goa Raia, Goa",15.3152617,73.9832559,Grocery delivery service,5,5,"Raia, Goa",077093 88582,
"Marc Brown - Cake Shop & Bakery Panaji, Goa",15.5001731,73.8309463,Bakery and Cake Shop,4.1,345,"Panaji, Goa",091300 95325,"Dine-in,Takeaway"
"Morning Star Bakery Madgaon, Goa",15.271243,73.9592856,Cake shop,3.9,11,"Madgaon, Goa",,Delivery
"Jackris bakery Benaulim Benaulim, Goa",15.2607396,73.946575,Bakery and Cake Shop,3.9,71,"Benaulim, Goa",095117 49925,
"The Temptation Margao 24x7 - Complete Food Shop Madgaon, Goa",15.2721958,73.9624222,Bakery and Cake Shop,4.1,1800,"Madgaon, Goa",020 7117 2808,"Dine-in,Takeaway"
"Monginis Cake Shop Panaji, Goa",15.377345,73.870683,Cake shop,3.2,81,"Panaji, Goa",092255 48011,
"Margao Electronics Madgaon, Goa",15.2723157,73.9572612,Electronics store,3.7,433,"Madgaon, Goa",0832 273 6686,"In-store pick-up,Delivery"
"The Shop Panaji, Goa",15.4986215,73.8331173,Clothing store,5,5,"Panaji, Goa",,In-store shopping
"Nicolau Bakery Raia, Goa",15.3194102,73.9835807,Bakery and Cake Shop,4.1,418,"Raia, Goa",078759 56183,
"Damro Furniture Nuvem, Goa",15.3179327,73.9418948,Furniture store,3.8,117,"Nuvem, Goa",0832 279 1488,Delivery
"Baker Point Madgaon, Goa",15.276117,73.9792588,Bakery and Cake Shop,4.3,306,"Madgaon, Goa",097653 29940,
"Jesu Tattoo & Art Studio: Best Tattoo Artist & Shop in North Goa Calangute, Goa",15.545347,73.7632713,Tattoo shop,4.9,836,"Calangute, Goa",098228 77024,On-site services
"Abbash pan Shop Davarlim, Goa",15.2770427,73.9866052,Paan shop,5,3,"Davarlim, Goa",,
"Golden Heart Emporium Book Store Madgaon, Goa",15.2756473,73.9575005,Book store,4.2,50,"Madgaon, Goa",0832 273 2450,Delivery
"Baked In Goa (authentic woodfired pizzeria & bar) Calangute, Goa",15.5381448,73.7617171,Pizza,4.7,1100,"Calangute, Goa",097677 15333,
"Cream Choc Gelato Panaji, Goa",15.4850099,73.810982,Ice Cream,4.6,1500,"Panaji, Goa",093731 63259,"Dine-in,Takeaway"
"Natural Ice Cream Madgaon, Goa",15.2717315,73.957667,Ice Cream,4.4,1500,"Madgaon, Goa",077220 57841,
"Carpe Diem Art Gallery, Learning Centre and Cafe Majorda, Goa",15.312839,73.9122136,Art center,4.4,263,"Majorda, Goa",088888 62462,"Dine-in,Takeaway"
"Zantye's Cashew Panaji, Goa",15.4983081,73.8360376,Wine store,4.6,16,"Panaji, Goa",098221 36755,
FB Cafe Goa Goa,15.538829,73.8203095,Patisserie,4.9,81,Goa,098202 20912,"In-store shopping,In-store pick-up"
"Jackris Madgaon, Goa",15.2721021,73.9599215,Cafe,3.6,165,"Madgaon, Goa",095117 49925,
"Mac Doulani - Bespoke Tailors Calangute, Goa, india Calangute, Goa",15.5400054,73.764393,Custom tailor,4.9,42,"Calangute, Goa",098221 25756,"Online appointments,On-site services not available"
"Major Bakery Tivim, Goa",15.6182491,73.8452957,Bakery and Cake Shop,3.9,1400,"Tivim, Goa",083800 95169,
"Himalaya Ice Cream Factory Madgaon, Goa",15.268044,73.9628778,Ice Cream,4.2,322,"Madgaon, Goa",0832 273 0916,
"Harman Chahawala Siolim, Goa",15.6268133,73.7658885,Tea store,4.4,24,"Siolim, Goa",,
"Himalaya Ice Cream Factory Madgaon, Goa",15.268044,73.9628778,Ice Cream,4.2,322,"Madgaon, Goa",0832 273 0916,
"Cafe Tato Panjim Church Panaji, Goa",15.4995842,73.8289475,Cafe,4.3,924,"Panaji, Goa",098905 44143,"Dine-in,Takeaway"
"The Chocolate Room Madgaon, Goa",15.2864353,73.9809636,Cafe,3.9,897,"Madgaon, Goa",098506 03662,"Dine-in,Kerbside pickup"
"Xanti Bakery Colva, Goa",15.2782486,73.9298602,Bakery and Cake Shop,4.1,274,"Colva, Goa",088881 19688,Delivery
"Santana bakery Sanguem, Goa",15.2279599,74.1515508,Bakery and Cake Shop,4.1,33,"Sanguem, Goa",,
"Sangam Bakery Ponda, Goa",15.4021546,74.0106789,Bakery and Cake Shop,4.4,366,"Ponda, Goa",091724 74667,
"Glory Bakery Benaulim, Goa",15.252547,73.9365825,Bakery and Cake Shop,4.7,3,"Benaulim, Goa",093730 20852,Takeaway
"King Crown Tattoo Studio Best Tattoo Artist Goa Goa One Of the Best Goa baga Baga, Mapusa, Goa",15.5551338,73.75557,Tattoo shop,4.9,1000,"Baga, Mapusa, Goa",099220 52671,Delivery
"Nanbai Madgaon, Goa",15.2715429,73.9636496,Cafe,4.5,474,"Madgaon, Goa",094055 03037,"Dine-in,Takeaway"
"Moksha Tattoo Studio Goa Calangute, Goa",15.5457045,73.7640492,Tattoo shop,4.6,1100,"Calangute, Goa",098817 73312,
Hari's German Bakery Goa,15.2604886,73.9276953,Cafe,4.1,451,Goa,,"Dine-in,Takeaway"
"Bakery Ribandar, Goa",15.5026899,73.8615755,Bakery and Cake Shop,4.6,25,"Ribandar, Goa",,
"Angel Tattoo Goa - Best Tattoo Studio In Goa - Best Tattoo Shop In Goa - Best Tattoo In Artist in Goa - Tattoo In Goa - Calangute, Goa",15.5565519,73.7547587,Tattoo shop,5,108,"Calangute, Goa",,
"The Mill Canacona, Goa",15.0110026,74.0278476,Cafe,4.5,990,"Canacona, Goa",075176 83611,"Dine-in,Takeaway"
"Goa Baking Company Panaji, Goa",15.4867174,73.8095589,Cake shop,4.3,16,"Panaji, Goa",0832 246 3333,"Dine-in,Takeaway"
"What's for Dessert? Benaulim, Goa",15.2516399,73.9337459,Bakery and Cake Shop,5,16,"Benaulim, Goa",077749 05395,
"Monginis Cake Shop Panaji, Goa",15.377345,73.870683,Cake shop,3.5,33,"Panaji, Goa",094038 80765,
"Jos Cabral & Co. Bicycle Shop Ponda, Goa",15.397622,74.003135,Bicycle Shop,4.4,81,"Ponda, Goa",083089 88775,"In-store shopping,Delivery"
"The Goan Kitchen Madgaon, Goa",15.2800339,73.9599457,Cafe,4.5,146,"Madgaon, Goa",080077 62121,"Dine-in,Kerbside pickup"
"Raiyani Steels Betora, Ponda, Goa",15.3855482,74.0319353,Furniture maker,4.2,104,"Betora, Ponda, Goa",097654 94214,
"Choco Decor homemade chocolates Ponda, Goa",15.4006838,74.0105539,Chocolate shop,4.9,8,"Ponda, Goa",097647 80627,
Walke Dairy Farm Goa,15.587774,73.810523,Dairy store,3.6,57,Goa,0832 291 0023,"In-store shopping,Delivery"
"Laxmi wines Ijorshi, Goa",15.3878816,73.8496669,Liquor Shop,4.4,34,"Ijorshi, Goa",090494 54447,Delivery
"Jackris Naveli, Goa",15.25606,73.9665169,Cafe,3.6,203,"Naveli, Goa",,
"Cashewnuts shop goa Panaji, Goa",15.4968999,73.8242028,Grocery store,,,"Panaji, Goa",,In-store shopping
"Cafe Tato Madgaon, Goa",15.274308,73.9589454,Cafe,4.1,1700,"Madgaon, Goa",0832 273 6014,
"Gomes Bakery Madgaon, Goa",15.2731424,73.9751305,Bakery and Cake Shop,4.6,10,"Madgaon, Goa",,Takeaway
"Ramesh Tattoo Panaji, Goa",15.4960971,73.8228423,Tattoo shop,4.6,178,"Panaji, Goa",095033 16561,Delivery
"Te Fitti Cafe Panaji, Goa",15.4953269,73.8215014,Cafe,4.6,489,"Panaji, Goa",070572 21122,"Dine-in,Kerbside pickup"
"PICK AND PACK SUPERSTORE Assolna, Goa",15.1803845,73.9723236,Supermarket,4.8,4,"Assolna, Goa",074988 33553,In-store shopping
"Rajkamal sweet and fast food Madgaon, Goa",15.2788972,73.9595508,Sweet shop,3.4,13,"Madgaon, Goa",,Delivery
"MilSim Goa PaintBall Nuvem, Goa",15.3220238,73.9401685,Paintball center,4.5,401,"Nuvem, Goa",095528 88000,
"Bridgestone Select - Jaywant Tyres Ponda, Goa",15.3968349,74.0060348,Tire shop,4.4,278,"Ponda, Goa",079 4256 8658,"In-store shopping,Delivery"
"Cafe Orange Boom Anjuna, Goa",15.5774098,73.7465812,Cafe,4.4,578,"Anjuna, Goa",070666 25903,"Dine-in,Takeaway"
Shagun Goa,15.2993265,74.123996,Fabric store,2.4,5,Goa,097642 42017,"In-store shopping,Delivery"
"Raviraj Wines & Liquor Panaji, Goa",15.4983619,73.823247,Wine store,4.5,8,"Panaji, Goa",0832 222 7973,"In-store shopping,In-store pick-up"
"A.S.P. Fruits & Vegetables Madgaon, Goa",15.2859874,73.9793227,Fruit and vegetable store,5,1,"Madgaon, Goa",,
"Menino Jesus Coffee Shop Benaulim, Goa",15.2782745,73.9301903,Cafe,4.3,439,"Benaulim, Goa",077966 76924,"Dine-in,Takeaway"
"Gaonkars wines store Darbandora, Goa",15.3397303,74.1196852,Liquor Shop,5,2,"Darbandora, Goa",096734 98349,
"K-OS Gaming Cafe Madgaon, Goa",15.2742204,73.9602221,Video game store,4.6,113,"Madgaon, Goa",094220 60950,
"Star Xerox Madgaon, Goa",15.2749465,73.958176,Print shop,3.7,218,"Madgaon, Goa",0832 273 3351,Delivery
"Arpora Central Cafe Restaurant Arpora, Goa",15.5634083,73.7644859,Restaurant,3.9,52,"Arpora, Goa",098238 03863,"Dine-in,Takeaway"
"Cafe London Madgaon, Goa",15.2582245,73.9659423,Cafe,4.1,254,"Madgaon, Goa",075079 42499,"Dine-in,Takeaway"
"Bangalore Bakery Ponda, Goa",15.3975518,74.0068767,Bakery and Cake Shop,4,7,"Ponda, Goa",075592 08228,Takeaway
"I Love Goa Panaji, Goa",15.500525,73.827895,Clothing store,3,3,"Panaji, Goa",,
"Shop Goa.in Bandoli, Goa",15.2993265,74.123996,Market,,,"Bandoli, Goa",,
"Keni Store Madgaon, Goa",15.2824848,73.9783662,Grocery store,3,3,"Madgaon, Goa",,
"GOA SHOPPING CENTRE Old Goa, Goa",15.5021761,73.9098637,Clothing store,,,"Old Goa, Goa",073507 54368,
"Hanuman Sweet & Provision Store Tisca, Goa",15.4189201,74.0816145,Sweet shop,,,"Tisca, Goa",078750 62428,
G.I.Q Jewellery Goa,15.561472,73.7518907,Clothing store,3.9,8,Goa,098221 26838,
"Sahara Mall Gurugram, Haryana",28.4794099,77.0862897,Shopping mall,3.9,34000,"Gurugram, Haryana",,
"Haryana Pera Bhandar Since 1960 Hansi, Haryana",29.0988639,75.9629468,Sweet shop,4.7,328,"Hansi, Haryana",070278 15000,
"Gattu Ki Famous Dukaan Ghasauli, Haryana",29.1339425,77.1042355,Supermarket,4.3,29,"Ghasauli, Haryana",080532 83238,Delivery
"HARYANA STORES Ambala Cantt, Ambala, Haryana",30.338059,76.840936,Men's clothing store,4.1,159,"Ambala Cantt, Ambala, Haryana",092154 30773,Delivery
"Saini Sweets Hisar, Haryana",29.1329757,75.7551423,Sweet shop,4.1,686,"Hisar, Haryana",099922 23693,"In-store pick-up,Delivery"
"PACHAR FASHION HOUSE Sundana, Haryana",28.7837056,76.5293077,Shopping mall,4.6,10,"Sundana, Haryana",,In-store shopping
"Ardee Mall Gurugram, Haryana",28.4453624,77.0809203,Shopping mall,4.4,12000,"Gurugram, Haryana",0124 280 6543,
"Crown Interiorz Mall Faridabad, Haryana",28.4695543,77.3068927,Shopping mall,4.3,33000,"Faridabad, Haryana",,On-site services
"Jaggi city center Ambala, Haryana",30.3679125,76.7997672,Shopping mall,4.4,8500,"Ambala, Haryana",,"On-site services,Online estimates"
"Gulab Sweets & Restaurant -Best Sweet Shop in Rohtak | Best Restaurent & Sweet Shop | Famous Sweet Shop in Rohtak Rohtak, Haryana",28.8966706,76.6091738,Restaurant,4.1,4700,"Rohtak, Haryana",090340 00248,
"Shori Market Rohtak, Haryana",28.896352,76.5788245,Store,4.3,1700,"Rohtak, Haryana",,"In-store shopping,In-store pick-up"
"Dulichand Halwai Sweets - Famous and oldest shop in Jhajjar Jhajjar, Haryana",28.6063358,76.6537806,Indian sweets shop,4.4,224,"Jhajjar, Haryana",099914 07774,"Dine-in,Takeaway"
"Hooda Departmental Store Ghuskani, Haryana",29.003581,76.5685008,Shopping mall,4.1,17,"Ghuskani, Haryana",079988 16000,In-store shopping
"Metropolis Mall Hisar, Haryana",29.1329435,75.7533643,Shopping mall,4.1,2000,"Hisar, Haryana",,On-site services
"Shree Balaji Misthan Bhandar Rohtak, Haryana",28.8999273,76.5961776,Sweet shop,3.9,697,"Rohtak, Haryana",094668 00900,
"Kanha Sweets. Charkhi Dadri, Haryana",28.5963351,76.2808566,Sweet shop,4.4,448,"Charkhi Dadri, Haryana",,
"AMBIENCE MALL, GURUGRAM Gurugram, Haryana",28.5056766,77.0967113,Shopping mall,4.6,130000,"Gurugram, Haryana",088608 00800,
"BIKANER MISHTHAN BHANDAR Hansi, Haryana",29.0944179,75.9620537,Sweet shop,4.2,818,"Hansi, Haryana",080030 00901,
Sanjay Barfi Peda Bhandar Bhiwani,28.7974788,76.132567,Sweet shop,4.5,186,Bhiwani,094165 24821,
"Devi Barfi Bhandar(OLD SHOP) Jhajjar, Haryana",28.6072376,76.6581919,Sweet shop,4.3,833,"Jhajjar, Haryana",094162 29687,
"PLA Shopping Complex Hisar, Haryana",29.1444591,75.7283359,Shopping mall,4.2,3700,"Hisar, Haryana",,
"Lala Matu Ram Halwai Gohana, Haryana",29.1388179,76.6926868,Sweet shop,4.3,3200,"Gohana, Haryana",090345 65201,
Eminent Mall Haryana,29.1571449,75.7216032,Shopping mall,4.2,3500,Haryana,095184 28289,On-site services
"sitaram sattring store Hisar, Haryana",29.1550508,75.7540688,Shopping mall,4.1,22,"Hisar, Haryana",,In-store shopping
Baba Mohjma Famous Rasgulla Factory(Bhandaar) Haryana,28.7574031,76.6267382,Sweet shop,4.2,69,Haryana,098967 21092,"In-store shopping,Delivery"
"Shri Krishna Wala Rohtak, Haryana",28.8908327,76.6087486,Sweet shop,4.2,2000,"Rohtak, Haryana",088962 88962,
"New Saini Sweets-Sweet Shop in Hisar/Bakery in Hisar Hisar, Haryana",29.1329757,75.7551423,Indian sweets shop,4.1,1400,"Hisar, Haryana",099922 23691,
"Good Earth City Center Mall Gurugram, Haryana",28.4217674,77.0531849,Shopping mall,4.4,3500,"Gurugram, Haryana",0124 496 5805,In-store shopping
"Gulab Rewri shop Rohtak, Haryana",28.9004772,76.5759702,Religious goods store,4.3,98,"Rohtak, Haryana",093150 83500,"In-store shopping,Delivery"
"Murli Sweets Bhiwani, Haryana",28.801381,76.137262,Sweet shop,4.3,357,"Bhiwani, Haryana",099911 18847,
"New Amrit Bikaner Misthan Bhandar - Best Sweet Shop | Famous Sweet Shops | Bakery Shop in Rohtak | Restaurant in Rohtak Rohtak, Haryana",28.8812728,76.6272046,Indian sweets shop,4.4,112,"Rohtak, Haryana",070823 97778,"In-store pick-up,Delivery"
"ARCHIES Hisar, Haryana",29.1472147,75.7255053,Gift shop,4,314,"Hisar, Haryana",094160 49239,
"HARYANA STORE Sonipat, Haryana",28.988325,77.0159489,Indian grocery store,3.8,25,"Sonipat, Haryana",094168 75153,"In-store shopping,Delivery"
"Hansiwala's Sweets Hisar, Haryana",29.1625328,75.7262636,Indian sweets shop,4.3,143,"Hisar, Haryana",,
"Omaxe City Centre Gurugram, Haryana",28.412719,77.0425507,Shopping mall,3.8,15000,"Gurugram, Haryana",1800 102 0064,In-store shopping
"Gold Souk Mall Gurugram, Haryana",28.4507667,77.0786475,Shopping mall,4.3,3000,"Gurugram, Haryana",,
"PYARE LAL HALWAI Bhiwani, Haryana",28.7892758,76.1384779,Sweet shop,4.1,923,"Bhiwani, Haryana",098121 78581,
"street shopping and eating Gurugram, Haryana",28.4737878,77.0475887,Shopping mall,4.3,477,"Gurugram, Haryana",,On-site services
"Jai Maa Peda Sweets Hansi, Haryana",29.0937342,75.9644783,Sweet shop,4.7,35,"Hansi, Haryana",,
"MGF Megacity Mall Gurugram, Haryana",28.4809085,77.0802798,Shopping mall,4.1,12000,"Gurugram, Haryana",0124 695 6010,
kiryana Store Haryana,29.0587757,76.085601,Shopping mall,4.5,15,Haryana,,
"Shri Balaji Trading Co. Rohtak, Haryana",28.8863447,76.5685511,Indian grocery store,4.1,344,"Rohtak, Haryana",,
"Halwasiya mall Bhiwani, Haryana",28.8015455,76.1343292,Shopping mall,3.8,948,"Bhiwani, Haryana",,On-site services
"Omaxe Celebration Mall Gurugram, Haryana",28.4274185,77.0361638,Shopping mall,3.7,15000,"Gurugram, Haryana",1800 102 0064,On-site services
"Bachat Bazar Dinod, Haryana",28.7963874,76.0534828,General store,4.5,51,"Dinod, Haryana",,"In-store shopping,In-store pick-up"
"Laxmi Pera Bhandar Hisar, Haryana",29.154875,75.7129255,Sweet shop,4.3,329,"Hisar, Haryana",098121 63850,
"Changa Murthal, Haryana",29.0315896,77.0723807,Clothing store,4.8,13,"Murthal, Haryana",098555 55970,"In-store pick-up,Delivery"
"Saini Sweets (camp chock) Hisar, Haryana",29.1459457,75.7273892,Sweet shop,4,213,"Hisar, Haryana",092543 84753,
"Mustufa khan Shop Neemka, Haryana",28.3547003,77.3812494,Shopping mall,3.6,10,"Neemka, Haryana",,
"Hansi Sweet Shop Jind, Haryana",29.3255714,76.2991744,Sweet shop,3.9,101,"Jind, Haryana",,"In-store pick-up,Delivery"
"Haryana Meat Shop Karnal, Haryana",29.6856946,76.9927403,Chicken & Mutton Shop,4.1,134,"Karnal, Haryana",094165 63362,
"Bestech Central Square Mall Gurugram, Haryana",28.4215969,77.0903498,Shopping mall,4.1,346,"Gurugram, Haryana",,On-site services
"Pahalwan Ji Gohana Famous Jalebi Hisar, Haryana",29.1700445,75.7264586,Dessert shop,3.5,2,"Hisar, Haryana",090343 52552,Delivery
"Derawal Rohtak, Haryana",28.9003027,76.5804362,Sweet shop,4,263,"Rohtak, Haryana",01262 250 875,
"Lala Dunichand Chhabildass Hansi, Haryana",29.0937456,75.9646886,Sweet shop,4.6,169,"Hansi, Haryana",070565 60074,"In-store shopping,Kerbside pickup"
"Gabroo the fashion hub Hisar, Haryana",29.1564332,75.7229444,Clothing store,4.4,40,"Hisar, Haryana",093065 69911,
"MGF Metropolitan Mall Gurugram, Haryana",28.4809085,77.0802798,Shopping mall,4.3,34000,"Gurugram, Haryana",0124 487 0980,"Dine-in,Drive-through"
"Gangu Halwai Hansi, Haryana",29.1004387,75.9624157,Indian sweets shop,4.5,394,"Hansi, Haryana",,
"Carzy footwear store phirki, Hansi, Haryana",29.095703,75.9642231,Shoe store,3.9,1900,"phirki, Hansi, Haryana",,"In-store shopping,Kerbside pickup"
"Boby Kriyana Store Jind, Haryana",29.4517492,76.33207,General store,4.1,47,"Jind, Haryana",,In-store shopping
"Carzy footwear store phirki, Hansi, Haryana",29.095703,75.9642231,Shoe store,3.9,1900,"phirki, Hansi, Haryana",,"In-store shopping,Kerbside pickup"
"Dehli Wala Halwai Hisar, Haryana",29.163054,75.7225149,Sweet shop,4.4,354,"Hisar, Haryana",,
"The Shop Gurugram, Haryana",28.468242,77.0833583,Clothing store,4.9,81,"Gurugram, Haryana",098714 55055,Delivery
"Kale Khan Clothing Store Hisar, Haryana",29.1378742,75.7182746,Clothing store,3.9,37,"Hisar, Haryana",092557 50124,Delivery
"Bikaner Misthan Bhandar Rohtak, Haryana",28.8939407,76.5820308,Sweet shop,4,454,"Rohtak, Haryana",098964 44546,Delivery
"Lakshya Sweets and Bakery, Urban Estate, Jind, Haryana Jind, Haryana",29.3163523,76.334983,Indian sweets shop,4.3,1700,"Jind, Haryana",070829 37381,
"Aggarwal Fair Price Shop Surtia, Haryana",29.8049854,75.190668,Shopping mall,4,6,"Surtia, Haryana",,
"Haryana Misthan Bhandhar Hansi, Haryana",29.0942967,75.965499,Fast Food,4.4,48,"Hansi, Haryana",,"Dine-in,Drive-through"
"Hansi Peda Wale Hisar, Haryana",29.1621399,75.7216596,Sweet shop,4.1,99,"Hisar, Haryana",092155 42039,
"Banarsi Das Halwai Hisar, Haryana",29.1623469,75.724084,Indian sweets shop,4.5,1000,"Hisar, Haryana",090344 39482,
"Crown Plaza Bhiwani, Haryana",28.8001969,76.1405693,Shopping mall,4.2,1600,"Bhiwani, Haryana",,On-site services
"Fashion Frenzy Gurugram, Haryana",28.4350774,77.0593657,Clothing store,5,31,"Gurugram, Haryana",099905 25285,
"Chawla Fashion Rohtak, Haryana",28.8962414,76.5783767,Women's clothing store,3.7,31,"Rohtak, Haryana",089509 85779,"In-store shopping,Delivery"
"Shankar Rohtak, Haryana",28.8924267,76.611406,Sweet shop,4.5,99,"Rohtak, Haryana",097293 61863,
"Haryana Cloth Store - Ladies Suit Retail Shop Rewari, Haryana",28.2002535,76.6153672,Clothing store,3.4,48,"Rewari, Haryana",,
"Jaal vali dukan Bhiwani, Haryana",28.7950048,76.1346112,Sweet shop,4.5,83,"Bhiwani, Haryana",090341 72600,"In-store shopping,Delivery"
"Aggarwal Sweets, Jind Jind, Haryana",29.3167362,76.3350298,Sweet shop,4.3,1200,"Jind, Haryana",,"In-store pick-up,Delivery"
"Chaudhary Sweets Rohtak, Haryana",28.8919522,76.6029131,Sweet shop,3.8,44,"Rohtak, Haryana",092155 58012,
"Pastry Plaza Hisar, Haryana",29.1623571,75.7217421,Bakery and Cake Shop,4.1,45,"Hisar, Haryana",098960 44454,
"Duke shop Bhiwani, Haryana",28.8026975,76.134215,Clothing store,3.8,33,"Bhiwani, Haryana",,"In-store shopping,Delivery"
"Mohan Sweets Hisar, Haryana",29.1587873,75.7251557,Indian sweets shop,4.1,607,"Hisar, Haryana",092554 15131,
"Batra Confectionery Store Narwana, Haryana",29.5952751,76.1139578,Bakery and Cake Shop,4.4,292,"Narwana, Haryana",094166 08654,
"Kashmir Silk Store Karnal, Haryana",29.68523,76.9892887,Clothing store,4.2,53,"Karnal, Haryana",098960 74777,"In-store shopping,Delivery"
"Bakers Live Rohtak, Haryana",28.890248,76.6093648,Bakery and Cake Shop,4.2,1800,"Rohtak, Haryana",085720 60240,
"Gudiya Ki Dukaan Charkhi Dadri, Haryana",28.5007013,75.9135721,General store,4.4,17,"Charkhi Dadri, Haryana",098175 59245,Delivery
"Qutub Plaza Gurugram, Haryana",28.4719619,77.1017095,Plaza,4.2,10000,"Gurugram, Haryana",087503 64666,
"Batra Sweets Jind, Haryana",29.3244513,76.3024562,Indian sweets shop,3.9,1000,"Jind, Haryana",092555 99186,
"Kaliya Super Store Kapdo, Haryana",29.3809776,76.1037711,Supermarket,4.2,36,"Kapdo, Haryana",073573 53531,
"Mor Sweets Uchana, Haryana",29.4747239,76.189353,Sweet shop,4.1,889,"Uchana, Haryana",092155 08295,
"Shree Ji Pera Bhandar Hansi, Haryana",29.0945613,75.9518981,Sweet shop,4.7,11,"Hansi, Haryana",098123 41600,"In-store shopping,Delivery"
"Khurana Kiryana Store dest, Haryana",29.0587757,76.085601,Shopping mall,4.4,5,"dest, Haryana",,
"Devta's misthan bhandar Hisar, Haryana",29.1404957,75.739747,Sweet shop,3.9,177,"Hisar, Haryana",098960 43886,Delivery
"Ashok Barfi Peda Bhandar Bhiwani, Haryana",28.79782,76.1441795,Sweet shop,4.5,53,"Bhiwani, Haryana",099916 66694,Delivery
"Market No.1 Nit Faridabad, Haryana Faridabad, Haryana",28.38204,77.2993222,Market,4.2,6400,"Faridabad, Haryana",,
"The Mall of Faridabad Faridabad, Haryana",28.3863888,77.2990191,Shopping mall,4.5,1700,"Faridabad, Haryana",070113 66061,
"Sardar Ji Burfi Wale Safidon, Haryana",29.4050459,76.6680575,Indian sweets shop,4.4,479,"Safidon, Haryana",0168 626 3029,
"Wardrobe The Family Store Rohtak, Haryana",28.8872852,76.6116714,Clothing store,4.1,37,"Rohtak, Haryana",,
"Jagannath Saraf Bhiwani, Haryana",28.7900395,76.1385044,Jewelry store,4.3,167,"Bhiwani, Haryana",,"In-store shopping,Delivery"
"Factory Outlets,good shopping Haryana",29.5261359,75.128399,Clothing store,3.7,3,Haryana,,"In-store shopping,Delivery"
"Shiv Bhola Tobacco Hisar, Haryana",29.1158622,75.7206549,Tobacco shop,4.4,26,"Hisar, Haryana",,
Nagpal Standard Sweets & Namkeen Haryana,28.896295,76.5799279,Fast Food,4,761,Haryana,01262 268 625,
"Chhabra General Store Hansi, Haryana",29.1005206,75.9608425,General store,3.9,98,"Hansi, Haryana",,
"Saini Kiryana Store Hisar, Haryana",29.1491875,75.7216527,General store,4.7,48,"Hisar, Haryana",094680 46025,
"Haryana Rewri Rohtak, Haryana",28.8999612,76.580316,Sweet shop,4.6,23,"Rohtak, Haryana",098964 54525,"In-store pick-up,Delivery"
"Barfiwala Rohtak, Haryana",28.896527,76.6093185,Sweet shop,4.3,62,"Rohtak, Haryana",090348 75789,
"L. Duni Chand Chabil Dass (Old Shop) Hansi, Haryana",29.1001931,75.9633835,Sweet shop,5,1,"Hansi, Haryana",,
"Kalra Sweets Namkeen & Cold Carner Chang, Haryana",28.8797501,76.2473957,Restaurant,4.1,28,"Chang, Haryana",081681 81344,"Dine-in,Drive-through"
"Shopping Market Faridabad, Haryana",28.3708735,77.3517101,Market,4.3,41,"Faridabad, Haryana",,In-store shopping
"Sweets kithana / Pinu & Kala Businessman Kithana, Haryana",29.5517359,76.3870715,Sweet shop,4.5,16,"Kithana, Haryana",,"In-store shopping,Delivery"
"BMG Mall Rewari, Haryana",28.1948442,76.6209556,Shopping mall,4.1,17000,"Rewari, Haryana",099924 24000,
"Haryana educational store Rohtak, Haryana",28.8876024,76.6094242,Book store,3.9,296,"Rohtak, Haryana",098961 02590,
"Dev Cosmetics Hansi, Haryana",29.1018724,75.9606414,Shopping mall,4,107,"Hansi, Haryana",,In-store shopping
"Sanjay Cool Point Hisar, Haryana",29.1387846,75.7368434,Confectionery store,4.9,12,"Hisar, Haryana",,Delivery
"Grand Mall Gurugram, Haryana",28.4795985,77.0898417,Shopping mall,3.9,3900,"Gurugram, Haryana",084334 58815,
"Lovely pan house Bhiwani, Haryana",28.795341,76.1314557,Shopping mall,3.9,28,"Bhiwani, Haryana",,
"ROYAL LIVE BAKERY Hisar, Haryana",29.1472335,75.7255558,Bakery and Cake Shop,4.2,784,"Hisar, Haryana",092536 70400,"Dine-in,Takeaway"
"Duli Bhujiawala Charkhi Dadri, Bhiwani, Haryana",28.5972274,76.2800785,Bakery and Cake Shop,4.7,11,"Charkhi Dadri, Bhiwani, Haryana",090341 75009,Delivery
"Santoshi sweets & foods Hisar, Haryana",29.1357862,75.741005,Sweet shop,3.8,183,"Hisar, Haryana",,
"Som Sweets Rohtak, Haryana",28.8903992,76.6084315,Sweet shop,3.9,1400,"Rohtak, Haryana",,
"Duli Bhujiawala Charkhi Dadri, Bhiwani, Haryana",28.5972274,76.2800785,Bakery and Cake Shop,4.7,11,"Charkhi Dadri, Bhiwani, Haryana",⋅ 9 pm,Delivery
"New Bikaner Sweets Home Hisar, Haryana",29.1695208,75.7177984,Sweet shop,4.1,55,"Hisar, Haryana",072062 62213,Delivery
"Yadav Paan House Bhiwani, Haryana",28.7969365,76.1443442,Store,4.7,7,"Bhiwani, Haryana",,
"Pappu Bakery Rohtak, Haryana",28.8938942,76.5980246,Bakery and Cake Shop,4.1,1100,"Rohtak, Haryana",096717 56021,"In-store pick-up,Delivery"
"Lamba Bartan Store Hisar, Haryana",29.1617131,75.7255032,Kitchen supply store,4.8,4,"Hisar, Haryana",094163 64107,"In-store shopping,Delivery"
"SURESH TEA STALL Famous tea Stall in Rohtak Rohtak, Haryana",28.8933094,76.5990634,Coffee shop,4.4,23,"Rohtak, Haryana",098962 13240,"Dine-in,Takeaway"
"Deep Handloom Bhiwani, Haryana",28.7928985,76.1303042,Clothing store,3.2,30,"Bhiwani, Haryana",092551 36942,In-store shopping
"Dalbir Kiryana Store Bhiwani, Haryana",28.7908227,76.160473,Grocery store,4.4,17,"Bhiwani, Haryana",,In-store shopping
"Pankaj Book Depot Kharak Kalan, Haryana",28.829638,76.3066944,Book store,3.9,33,"Kharak Kalan, Haryana",077770 71617,
"Anuj Cloth Store Bahal, Haryana",28.6315125,75.6190327,Clothing store,4.8,9,"Bahal, Haryana",,
"Lala Atma Ram Jain Halwai Rohtak, Haryana",28.8931427,76.5808367,Sweet shop,4.5,113,"Rohtak, Haryana",092543 68426,
"Shri Balaji Kriyana Store Hisar, Haryana",29.1173925,75.6988468,Grocery store,4.7,3,"Hisar, Haryana",098963 54905,"In-store shopping,Delivery"
"Ashu confectionary store Hansi, Haryana",29.1015482,75.9606741,Bakery and Cake Shop,4.5,18,"Hansi, Haryana",079884 01646,
"Shree Ganesh Misthan & namkeen Bhandar Bhiwani, Haryana",28.7987239,76.1446745,Sweets and dessert buffet,4.2,90,"Bhiwani, Haryana",095188 99000,
"Parijat Complex Hisar, Haryana",29.1602825,75.7205579,Shopping mall,4.1,678,"Hisar, Haryana",,On-site services
"Balkrishan Cloth Shop Adampur, Haryana",29.2845867,75.4693402,Clothing store,3.5,11,"Adampur, Haryana",,In-store shopping
"Mahalaxmi Sweets and Caterers Jind, Haryana",29.3134605,76.3222592,Sweet shop,4.1,625,"Jind, Haryana",094167 73000,"In-store pick-up,Delivery"
"Laxmi Bikaner Mishthan Bhandar Bhiwani, Haryana",28.7957108,76.1575054,Indian sweets shop,3.9,82,"Bhiwani, Haryana",099969 80999,"In-store pick-up,Delivery"
"Nota Ram and Sons Kaithal, Haryana",29.8065633,76.4094427,Sweet shop,3.6,15,"Kaithal, Haryana",,
"Juneja Misthan Bhandar Bhiwani, Haryana",28.7941201,76.1288517,Indian sweets shop,4.7,38,"Bhiwani, Haryana",072909 66000,
"Vijay Tea Store Rohtak, Haryana",28.9001947,76.5808979,Tea store,4.1,121,"Rohtak, Haryana",072061 62562,
"Madan Misthan Bhandar Charkhi Dadri, Haryana",28.5941746,76.2858928,Sweet shop,4.5,28,"Charkhi Dadri, Haryana",098135 55262,In-store shopping
"Sagar Tea Bhiwani, Haryana",28.7914916,76.141084,Store,4.1,11,"Bhiwani, Haryana",,
"Bikaner Mishthan Bhandar Narnaund, Haryana",29.2221745,76.141799,Sweet shop,3.7,30,"Narnaund, Haryana",097282 98222,"In-store shopping,In-store pick-up"
"Guddu Bhai Home Hisar, Haryana",29.1751762,75.7039886,Designer Clothing Store,5,9,"Hisar, Haryana",099910 77004,
"ASIAN BAKERY Bhiwani, Haryana",28.794487,76.1287252,Bakery and Cake Shop,4.3,853,"Bhiwani, Haryana",090345 50186,"In-store shopping,In-store pick-up"
"Gori Vastar Bhandaar Gondar, Haryana",29.6565485,76.744814,Clothing store,3.8,6,"Gondar, Haryana",,
"Shri Shyam Traders FANTASTIC FURNITURE Hisar, Haryana",29.1441369,75.7341004,Home goods store,4,100,"Hisar, Haryana",072064 94333,"In-store pick-up,Delivery"
"Famous Mens Wear Kagdana, Haryana",29.2891771,75.1552265,Clothing store,,,"Kagdana, Haryana",094168 37013,
"Gulati Sweets Rohtak, Haryana",28.8909118,76.60915,Restaurant,4.2,80,"Rohtak, Haryana",089508 39422,
olympic sports Haryana,29.0587757,76.085601,Sporting goods store,3.9,121,Haryana,,"In-store shopping,In-store pick-up"
"Lajwab Chhole Bhature Wala Hisar, Haryana",29.1474241,75.7225638,Deli,3.9,75,"Hisar, Haryana",,
"Kaka Bakery Bhiwani, Haryana",28.7949661,76.1290713,Bakery and Cake Shop,3.9,420,"Bhiwani, Haryana",089307 07307,
"Raj Tea And Canteen Charkhi, Dadri, Haryana",28.6060903,76.2886555,Grocery store,4.9,39,"Charkhi, Dadri, Haryana",,
"[Apple Authorised Reseller] Imagine | Hisar Hisar, Haryana",29.1473224,75.7253286,Cell phone store,4.9,468,"Hisar, Haryana",082874 82874,
"Jamna Dass Society Hansi, Haryana",29.1092815,75.9608957,Supermarket,4.5,17,"Hansi, Haryana",,
"Famous Jalebi Haryana Fatehabad, Haryana",29.5088858,75.4586033,Sweet shop,4.4,10,"Fatehabad, Haryana",,
"Mahender Karyana Store Hisar, Haryana",29.1231358,75.7019993,Grocery store,3.4,9,"Hisar, Haryana",092554 17365,"In-store shopping,Delivery"
"BABU RAM SATPAL UCHANA MANDI, UCHANA , JIND HARYANA Uchana, Haryana",29.468269,76.1805763,Home goods store,4.1,41,"Uchana, Haryana",,
"Pappu Famous Tea Stall Hisar, Haryana",29.1447291,75.7278809,Coffee shop,5,3,"Hisar, Haryana",,Dine-in
"Raj's Mithai Mahal Hisar, Haryana",29.1419655,75.7205773,Indian sweets shop,4.1,99,"Hisar, Haryana",099964 90050,"In-store pick-up,Delivery"
Shri Krishna Sweets & Namkeen Haryana,28.9016932,76.5724537,Sweet shop,4.3,32,Haryana,094662 78386,Delivery
VIKAS SPORTS Haryana,28.8009777,76.1363069,Sporting goods store,4.5,92,Haryana,094162 91022,"In-store shopping,Delivery"
"M3M Corner Walk Gurugram, Haryana",28.4015329,77.0077428,Shopping mall,4.3,491,"Gurugram, Haryana",,On-site services
"Sajni Bangles Bhiwani, Haryana",28.7947075,76.1354316,Cosmetics store,4.8,5,"Bhiwani, Haryana",,In-store shopping
"The Royal Bakers And Confectioners Hansi, Haryana",29.100986,75.964116,Bakery and Cake Shop,4.4,326,"Hansi, Haryana",098120 81679,
Vishal Hotel & SHOP Haryana,28.8456931,76.1098008,Store,4.9,21,Haryana,,"Dine-in,Drive-through"
"JINDAL BOOK CENTER Hisar, Haryana",29.1495927,75.7217609,Book store,4.1,141,"Hisar, Haryana",094162 41005,
"GAYTRI KIRYANA STORE Hisar, Haryana",29.1422203,75.741625,Indian grocery store,4.3,3,"Hisar, Haryana",,Delivery
"Raj Binders & Stationers Hisar, Haryana",29.1587003,75.7262863,Stationery store,2.9,7,"Hisar, Haryana",094167 96310,"In-store shopping,Delivery"
"RUBY ENTERPRISES Hansi, Haryana",29.0981646,75.9641249,Watch store,4.9,30,"Hansi, Haryana",072066 30888,
"Bake4U The Bakers Fatehabad, Haryana",29.5062212,75.4551328,Bakery and Cake Shop,4.4,314,"Fatehabad, Haryana",070270 52520,
"DLF Emporio New Delhi, Delhi",28.543455,77.1566949,Shopping mall,4.6,11000,"New Delhi, Delhi",011 4611 6666,
"Famous bulding material suplier Gangoli, Haryana",29.2796257,76.532262,Building materials store,,,"Gangoli, Haryana",,
"Kherenti Khrenti, Haryana",29.1685964,76.3193349,Store,5,5,"Khrenti, Haryana",,
"Haryana Doors Hisar Hisar, Haryana",29.1333967,75.6726014,Window supplier,5,562,"Hisar, Haryana",070686 12345,
"Computer World Rohtak, Haryana",28.8976761,76.5898285,Computer store,3.8,202,"Rohtak, Haryana",094160 54507,"In-store pick-up,Delivery"
"PC Jeweller Rohtak Rohtak, Haryana",28.897685,76.5811106,Jewelry store,3.3,29,"Rohtak, Haryana",01262 255 061,Delivery
"Batra Book Centre Hansi, Haryana",29.1020501,75.9616754,Book store,4.2,128,"Hansi, Haryana",,"In-store shopping,Delivery"
"Sanjay Electronics Charkhi Dadri, Haryana",28.5961814,76.2773767,Electronics store,3.8,162,"Charkhi Dadri, Haryana",083978 39206,"In-store shopping,Delivery"
"Laxman Ki Famous Dukaan Ghasauli, Haryana",29.1352049,77.1057707,Grocery store,4.9,7,"Ghasauli, Haryana",099911 56312,
"Famous Shop Ruksana, Haryana",29.6577472,76.6646526,Electronics store,,,"Ruksana, Haryana",,
"Louis Philippe Hisar, Haryana",29.1442003,75.7283848,Clothing store,3.9,38,"Hisar, Haryana",070567 09533,
"jatan kiryana store Sanjarwas, Haryana",28.7291908,76.3183308,Shopping mall,3.4,5,"Sanjarwas, Haryana",099911 70015,
"Merion Sky Tech Mall Rohtak, Haryana",28.8975612,76.629598,Shopping mall,3.8,3500,"Rohtak, Haryana",,
"Aarya Bazar Hisar, Haryana",29.1619486,75.72561,Shopping mall,3.7,13,"Hisar, Haryana",,
"Discount Shop Rohtak, Haryana",28.8863752,76.5740469,Shopping mall,3.7,3,"Rohtak, Haryana",,
"Sapna garments Hansi, Haryana",29.1014909,75.9605885,Clothing store,4,14,"Hansi, Haryana",,
"Ganesh Bikaner Misthan Bhandar Bhiwani, Haryana",28.8161098,76.1391592,Sweet shop,3.6,13,"Bhiwani, Haryana",097283 99100,
"W aurelia Bhiwani, Haryana",28.8002817,76.1402639,Women's clothing store,5,3,"Bhiwani, Haryana",,
"ankush shop Hisar, Haryana",29.1372613,75.7425168,Tea store,,,"Hisar, Haryana",,
"INDIA ELECTRONICS (Rajesh Mehtani) Hisar, Haryana",29.1600263,75.721962,Electronics store,5,4,"Hisar, Haryana",094161 85055,
"Nucleus Mall Ranchi, Jharkhand",23.3772342,85.3314637,Shopping mall,4.4,48000,"Ranchi, Jharkhand",,
"Shoppers Stop Ranchi, Jharkhand",23.4036729,85.3155042,Clothing store,4.2,2300,"Ranchi, Jharkhand",0651 256 3308,"In-store shopping,In-store pick-up"
"Mahi Traders Fashion - The Most Famous Women's Clothing Store Koderma, Jharkhand",24.4681644,85.5938642,Designer Clothing Store,5,17,"Koderma, Jharkhand",062018 49108,"In-store shopping,In-store pick-up"
"JD Hi Street Mall Ranchi, Jharkhand",23.3580302,85.3247152,Shopping mall,4.1,21000,"Ranchi, Jharkhand",097091 09110,
"Megashop Retail Ranchi, Jharkhand",23.3666372,85.3251624,Clothing store,3.9,118,"Ranchi, Jharkhand",,Delivery
"V-Mart - Birsa Chowk-Ranchi Ranchi, Jharkhand",23.3782907,85.3168627,Clothing store,4.7,3500,"Ranchi, Jharkhand",090156 84112,
"Birsa Mart - Best Grocery Shop In Ranchi Ranchi, Jharkhand",23.323661,85.307128,Indian grocery store,4.3,537,"Ranchi, Jharkhand",094701 61295,
"Gangaur Next Ranchi, Jharkhand",23.3756492,85.3335907,Sweet shop,4,464,"Ranchi, Jharkhand",094311 09872,"In-store shopping,In-store pick-up"
"Novelty Fashion mall Ranchi, Jharkhand",23.3586295,85.325839,Clothing store,3,209,"Ranchi, Jharkhand",081235 77115,Delivery
"Lovesons Mall Ranchi, Jharkhand",23.3716822,85.3207053,Shopping mall,3.9,716,"Ranchi, Jharkhand",0651 796 2163,
"BKB Mall Upper Bazar Ranchi, Jharkhand",23.3721838,85.3206311,Shopping mall,3.9,1700,"Ranchi, Jharkhand",089693 68757,
"Kyds & Ladies Corner (KLC Mall) Ranchi, Jharkhand",23.3677105,85.3249051,Clothing store,4.9,457,"Ranchi, Jharkhand",,
"Ved Textiles & Apparels Ranchi, Jharkhand",23.3549913,85.3239374,Clothing store,4.1,1200,"Ranchi, Jharkhand",093340 42115,"In-store shopping,Delivery"
"Sainik market Ranchi, Jharkhand",23.3589549,85.323933,Shopping mall,4.1,1900,"Ranchi, Jharkhand",,
"Wool House Ranchi, Jharkhand",23.3635668,85.3254894,Clothing store,4,1400,"Ranchi, Jharkhand",095088 47811,
"Gupta Bhandar Ranchi, Jharkhand",23.3613122,85.3263128,Grocery store,4.1,363,"Ranchi, Jharkhand",094311 00692,Delivery
"Big Shop Ranchi, Jharkhand",23.3574647,85.3251628,Clothing store,4.2,122,"Ranchi, Jharkhand",0651 233 0002,Delivery
"Firayalal...NXT - Clothing Shops in Ranchi Ranchi, Jharkhand",23.350499,85.2990009,Clothing store,4.1,1300,"Ranchi, Jharkhand",0651 224 3717,Delivery
"Kashmir Vastralaya Collections Ranchi, Jharkhand",23.3634485,85.3254993,Clothing store,4,2100,"Ranchi, Jharkhand",0651 220 5222,
"SAKSHAM Hazaribagh, Jharkhand",23.9949239,85.3521906,Sweet shop,3.9,272,"Hazaribagh, Jharkhand",088770 06600,
"Bhola Misthan Bhandar Ranchi, Jharkhand",23.3677582,85.3388924,Indian sweets shop,4.3,883,"Ranchi, Jharkhand",,"In-store pick-up,Delivery"
"GuptShopper Bundu, Jharkhand",23.1742096,85.5886866,General store,4.8,18,"Bundu, Jharkhand",095468 35234,"In-store pick-up,Delivery"
"The Bokaro Mall Bokaro Steel City, Jharkhand",23.6643713,86.1476181,Shopping mall,4.3,18000,"Bokaro Steel City, Jharkhand",,
"Pantaloons (Eastern Mall, Ranchi) Ranchi, Jharkhand",23.3683215,85.3398384,Clothing store,4.2,3700,"Ranchi, Jharkhand",077070 17186,"In-store shopping,In-store pick-up"
"Fashion Shoppee | Best Clothing Store in Ranchi Ranchi, Jharkhand",23.3573618,85.3071942,Clothing store,4.6,8,"Ranchi, Jharkhand",098353 22625,"In-store shopping,Delivery"
"R.C. Firayalal & Co. Ranchi, Jharkhand",23.3702956,85.3250489,Clothing store,4.1,1600,"Ranchi, Jharkhand",0651 220 9306,
"BAGARIA GARMENTS Ramgarh Cantonment, Jharkhand",23.6296277,85.5202555,Clothing store,3.8,1300,"Ramgarh Cantonment, Jharkhand",093047 99902,Delivery
"City Centre Mall Ranchi, Jharkhand",23.3535922,85.3279961,Shopping mall,3.6,2100,"Ranchi, Jharkhand",0651 699 0008,On-site services
"Sweet India Ranchi, Jharkhand",23.3674925,85.3249231,Sweet shop,4.1,365,"Ranchi, Jharkhand",094311 14522,
"Fashion World Ranchi, Jharkhand",23.372051,85.3216145,Clothing store,3.3,87,"Ranchi, Jharkhand",083406 72181,Delivery
"UDAY, Sweets & Snacks Ranchi, Jharkhand",23.371568,85.329391,Sweet shop,4,458,"Ranchi, Jharkhand",094311 09812,
"Max Ranchi, Jharkhand",23.3510961,85.3257611,Shopping mall,4.2,3200,"Ranchi, Jharkhand",097983 57009,
"Maa Tara Mistanna bhandar Ranchi, Jharkhand",23.3715011,85.3289661,Sweet shop,4.1,905,"Ranchi, Jharkhand",,
"Kamala Sweets Ranchi, Jharkhand",23.3278438,85.3142319,Sweet shop,3.8,634,"Ranchi, Jharkhand",070916 11112,Delivery
"AND Nucleus Mall Ranchi, Jharkhand",23.3775464,85.33158,Western apparel store,4.9,15,"Ranchi, Jharkhand",086971 32104,Delivery
"The Fame (Readymade Cloths & Sarees) Ranchi, Jharkhand",23.3440997,85.309562,Clothing store,4.9,12,"Ranchi, Jharkhand",087897 94949,"In-store shopping,In-store pick-up"
"Betel Shop Hazaribagh, Jharkhand",23.9899802,85.3910017,General store,4,34,"Hazaribagh, Jharkhand",,
"Mall Of Ranchi Ranchi, Jharkhand",23.3785209,85.3146659,Shopping mall,4.4,2900,"Ranchi, Jharkhand",080510 66666,
"RANGOLI LADIES WEAR Hazaribagh, Jharkhand",23.9938767,85.3545732,Men's clothing store,3.9,430,"Hazaribagh, Jharkhand",082940 63100,"In-store shopping,Delivery"
"RANGEELA MEGA MART Ranchi, Jharkhand",23.3722105,85.3211131,Clothing store,3.3,344,"Ranchi, Jharkhand",,"In-store shopping,In-store pick-up"
"M Baazar Ranchi Ranchi, Jharkhand",23.3693515,85.3248098,Clothing store,3.7,901,"Ranchi, Jharkhand",,"In-store shopping,Delivery"
"Anaj Bhandar Supermart Ranchi, Jharkhand",23.3886758,85.3363927,Grocery store,4.3,1000,"Ranchi, Jharkhand",079030 94601,"In-store pick-up,Delivery"
"G.E.L. Church Complex Ranchi, Jharkhand",23.3586295,85.325839,Shopping mall,4.2,2600,"Ranchi, Jharkhand",0651 235 1513,On-site services
"V2 Shoping Mall Ranchi, Jharkhand",23.3679854,85.324978,Clothing store,3.8,1900,"Ranchi, Jharkhand",011 4177 1850,Delivery
"Spring City Mall Ranchi, Jharkhand",23.3330464,85.3171719,Shopping mall,4.1,8000,"Ranchi, Jharkhand",099381 02021,On-site services
"The Raymond shop Ranchi, Jharkhand",23.3799526,85.3086733,Clothing store,4.1,324,"Ranchi, Jharkhand",0651 221 6843,
"Firaylal Mall Ranchi, Jharkhand",23.3703068,85.3250488,Shopping mall,4.1,176,"Ranchi, Jharkhand",0651 224 3717,
"MS Market Ranchi, Jharkhand",23.3619962,85.3288128,Market,3.6,74,"Ranchi, Jharkhand",,In-store shopping
"Arctic Mall Ranchi, Jharkhand",23.3885139,85.3363211,Shopping mall,3.9,424,"Ranchi, Jharkhand",098351 67657,
"The Chocolate Room | Best Chocolate Dessert in Ranchi | Best Coffee in Ranchi Ranchi, Jharkhand",23.3545484,85.3331447,Cafe,4.3,437,"Ranchi, Jharkhand",097099 01671,"Dine-in,Takeaway"
"Archies - Franchisee of Archies Ltd. | Gift Shop In Ranchi Ranchi, Jharkhand",23.3582204,85.3254555,Gift shop,4.1,278,"Ranchi, Jharkhand",091182 69090,"In-store shopping,In-store pick-up"
"Shelter Mall Ranchi, Jharkhand",23.3848356,85.2882063,Shopping mall,4.1,1300,"Ranchi, Jharkhand",093347 00330,
"Mall De-Cor Ranchi, Jharkhand",23.372144,85.3383092,Shopping mall,3.8,1200,"Ranchi, Jharkhand",097090 20677,On-site services
"Uday Mistanna Bhandar Ranchi, Jharkhand",23.3720546,85.3384778,Sweet shop,4.1,1600,"Ranchi, Jharkhand",,"In-store pick-up,Delivery"
"AND P&M Hi-Tech City Centre Mall Jamshedpur, Jharkhand",22.7847775,86.1799924,Western apparel store,4.6,49,"Jamshedpur, Jharkhand",082914 69011,Delivery
"Sreeleathers Ranchi Ranchi, Jharkhand",23.3559093,85.324688,Shoe store,4.1,5900,"Ranchi, Jharkhand",0651 233 0274,
"Riyada Bhavan Market Ranchi, Jharkhand",23.3570171,85.3244165,Shopping mall,3.8,67,"Ranchi, Jharkhand",,
"Fabindia, Kanke Road, Ranchi Ranchi, Jharkhand",23.3939092,85.3139469,Clothing store,4,401,"Ranchi, Jharkhand",081023 31788,
"Big mall Ranchi, Jharkhand",23.3281173,85.3149152,Shopping mall,4.8,4,"Ranchi, Jharkhand",070043 12974,
"Gangaur Confectioner - Best Confectionery Shop In Ranchi Ranchi, Jharkhand",23.3748644,85.3244002,Confectionery store,3.9,144,"Ranchi, Jharkhand",094311 14520,Delivery
"City Grocery Bazaar Ranchi, Jharkhand",23.3244208,85.3086251,Grocery store,4,467,"Ranchi, Jharkhand",⋅ 10 pm,Delivery
"TRENDS Ranchi, Jharkhand",23.3440997,85.309562,Clothing store,4,2200,"Ranchi, Jharkhand",097983 05148,
"Louis Philippe - Nucleus Mall Ranchi, Jharkhand",23.3772342,85.3314637,Men's clothing store,4.1,34,"Ranchi, Jharkhand",0651 299 9017,"In-store shopping,Delivery"
"Sweet Shops Ranchi, Jharkhand",23.3776001,85.3189822,Indian sweets shop,3.9,65,"Ranchi, Jharkhand",,Delivery
"BEST PRICE SHOP Bokaro Steel City, Jharkhand",23.6312512,86.1625173,Clothing store,4.4,8,"Bokaro Steel City, Jharkhand",,"In-store shopping,Kerbside pickup"
"Allen Solly Showroom Factory Outlet Ranchi, Jharkhand",23.3793851,85.3111037,Clothing store,4.1,60,"Ranchi, Jharkhand",,
Galaxia Mall Jharkhand,23.3811083,85.3003033,Shopping mall,3.9,3200,Jharkhand,,On-site services
"PUNJAB SWEET HOUSE Ranchi, Jharkhand",23.3590954,85.3253518,Sweet shop,4,1400,"Ranchi, Jharkhand",,"In-store pick-up,Delivery"
"SHAGUN SWEETS Ranchi, Jharkhand",23.300933,85.3137349,Indian sweets shop,4.2,1400,"Ranchi, Jharkhand",082357 29666,"In-store shopping,Kerbside pickup"
"VERMA SWEETS Ranchi, Jharkhand",23.3952616,85.3350893,Sweet shop,3.6,34,"Ranchi, Jharkhand",080512 16147,"Dine-in,Delivery"
"BUNAIKARI Ranchi, Jharkhand",23.3670341,85.3249263,Bridal shop,4.9,164,"Ranchi, Jharkhand",087970 76267,
"Puja Shop Ranchi, Jharkhand",23.370427,85.338915,Outlet mall,3.5,56,"Ranchi, Jharkhand",095559 66666,In-store shopping
"Shanti Shopping Complex Ranchi, Jharkhand",23.3286069,85.3150982,Shopping mall,3.8,76,"Ranchi, Jharkhand",,
"P&M MALL Jamshedpur, Jharkhand",22.7848821,86.1803979,Shopping mall,4.5,16000,"Jamshedpur, Jharkhand",0657 232 6000,
"Tapan Sweets & Bakery Ranchi, Jharkhand",23.2616086,85.3042053,Sweet shop,4.1,658,"Ranchi, Jharkhand",080925 44229,
"Rajasthan Kalewalaya Ramgarh Cantonment, Jharkhand",23.6290656,85.5206963,Sweet shop,3.9,606,"Ramgarh Cantonment, Jharkhand",,
"Bajrangi Pustak Bhandar Ranchi, Jharkhand",23.2879809,85.310304,Book store,4.2,779,"Ranchi, Jharkhand",080924 23744,Delivery
"Prasad Mart Ranchi, Jharkhand",23.3778473,85.3501508,Indian grocery store,4.3,337,"Ranchi, Jharkhand",,
"Van Heusen - Clothing Store, Ranchi Main Road Ranchi, Jharkhand",23.3572534,85.3250225,Clothing store,3.3,12,"Ranchi, Jharkhand",0651 350 2920,"In-store shopping,In-store pick-up"
"Pushpanjali (Saree Kendra) Ranchi, Jharkhand",23.372805,85.3205867,Clothing store,4.1,133,"Ranchi, Jharkhand",089876 63307,In-store shopping
"Jharkhand wine shop Ramgarh Cantonment, Jharkhand",23.6134337,85.5226394,Store,4,107,"Ramgarh Cantonment, Jharkhand",,
"Mehta Misthan Bhandar Kuju, Jharkhand",23.7278356,85.5063333,Sweet shop,4.1,76,"Kuju, Jharkhand",080024 10865,
"Sunday Market Ranchi, Jharkhand",23.4203668,85.2231893,Market,4.1,516,"Ranchi, Jharkhand",,
"Ayodhya General Store Ranchi, Jharkhand",23.3089678,85.27926,General store,4.3,39,"Ranchi, Jharkhand",093861 26137,
"D S Complex Ramgarh Cantonment, Jharkhand",23.6356001,85.5125253,Shopping mall,3.9,517,"Ramgarh Cantonment, Jharkhand",,On-site services
"Jewel India Ranchi, Jharkhand",23.3582096,85.3254354,Jewelry store,3.9,16,"Ranchi, Jharkhand",0651 233 0321,Delivery
"Priya Collection - best clothing shop | men's wear | shoes shop near me | shoes shop ranchi Ranchi, Jharkhand",23.3774753,85.3601377,Clothing store,4.8,6,"Ranchi, Jharkhand",093349 72623,"In-store shopping,Delivery"
"W For Woman Ranchi, Jharkhand",23.3771902,85.3315579,Clothing store,4,21,"Ranchi, Jharkhand",073600 66945,"In-store shopping,Delivery"
"Jassi Gifts Ranchi, Jharkhand",23.3717958,85.3196749,Gift shop,4.4,5,"Ranchi, Jharkhand",095075 80246,
"JHARCRAFT Ranchi, Jharkhand",23.3170704,85.3249543,Clothing store,4,203,"Ranchi, Jharkhand",0651 228 0042,
"Famous Watch Hazaribagh, Jharkhand",24.0204986,85.3481894,Watch store,5,1,"Hazaribagh, Jharkhand",098523 59394,In-store shopping
"Sri Alankar Jewellers & Sons Ranchi, Jharkhand",23.3584812,85.3256167,Jewelry store,4.1,284,"Ranchi, Jharkhand",0651 233 0312,
"TRENDS Hazaribagh, Jharkhand",23.991362,85.3541283,Clothing store,4.1,1600,"Hazaribagh, Jharkhand",06546 223 310,"In-store shopping,In-store pick-up"
"Fakira Chanachur Jamshedpur, Jharkhand",22.7929554,86.1838502,Vegetarian,4.4,173,"Jamshedpur, Jharkhand",093343 51075,
"Aditi Sweets and Bakery Ranchi, Jharkhand",23.3021604,85.3143622,Sweet shop,4.1,970,"Ranchi, Jharkhand",091101 63188,Delivery
"Vishal Mega Mart Ranchi, Jharkhand",23.367322,85.3249889,Hypermarket,3.6,2600,"Ranchi, Jharkhand",0124 455 5100,Delivery
"Panchwati Plaza - Shopping Mall Ranchi, Jharkhand",23.3750846,85.3246162,Shopping mall,3.8,2500,"Ranchi, Jharkhand",,
"Khushboo Fashion Shop Ranchi, Jharkhand",23.364009,85.3251009,Men's clothing store,4.7,7,"Ranchi, Jharkhand",098351 22526,"In-store shopping,Delivery"
"Anand Complex Ranchi, Jharkhand",23.371356,85.3347,Shopping mall,3.7,485,"Ranchi, Jharkhand",,On-site services
"Bombay Variety Store Khunti, Jharkhand",23.0717467,85.280092,Indian grocery store,5,10,"Khunti, Jharkhand",087894 21845,"In-store shopping,Delivery"
famous readymade Jharkhand,24.4918568,86.6982896,Women's clothing store,,,Jharkhand,,"In-store shopping,Delivery"
"Liberty Mega Mart Ranchi, Jharkhand",23.3210031,85.2978037,Grocery store,4.3,50,"Ranchi, Jharkhand",,"In-store shopping,In-store pick-up"
"Adhyan's Ranchi, Jharkhand",23.4115967,85.3161248,Boutique,4.5,35,"Ranchi, Jharkhand",099343 05242,"In-store shopping,Kerbside pickup"
"Reliance SMART Bazaar Ranchi, Jharkhand",23.4078327,85.3163297,Hypermarket,4.2,353,"Ranchi, Jharkhand",1800 891 0001,"In-store shopping,In-store pick-up"
"New Churuwala Ranchi, Jharkhand",23.3657424,85.3251162,Indian sweets shop,4,413,"Ranchi, Jharkhand",,"In-store shopping,In-store pick-up"
"The Cake Shop Bakery Ranchi, Jharkhand",23.3549574,85.3228032,Bakery and Cake Shop,4.1,818,"Ranchi, Jharkhand",070611 22203,
"Maa Laxmi General Store Nagwan Nagwan, Jharkhand",24.0528053,85.3883707,Grocery store,3.5,72,"Nagwan, Jharkhand",,"In-store shopping,Delivery"
"Seth Mohalla Hazaribagh, Jharkhand",23.9924711,85.3537671,General store,4.1,19,"Hazaribagh, Jharkhand",,
"Delhi Bazzaar Tilta, Ranchi, Jharkhand",23.4059882,85.2443572,Clothing store,4.5,8,"Tilta, Ranchi, Jharkhand",097090 73677,
"Famous watch and mobiles. Hazaribagh, Jharkhand",23.9936017,85.3548817,Electronics store,4.8,4,"Hazaribagh, Jharkhand",,"In-store shopping,Delivery"
"Kashmir Cloth Stores BAZAR, Jharkhand",23.6913486,85.2722472,Clothing store,4.3,31,"BAZAR, Jharkhand",094313 23780,
"Chhapan Bhog Ranchi, Jharkhand",23.379026,85.3158733,Sweet shop,3.8,153,"Ranchi, Jharkhand",,
"Howrah Bakery Ranchi, Jharkhand",23.3957587,85.3520936,Bakery and Cake Shop,3.9,19,"Ranchi, Jharkhand",095340 01396,Takeaway
"Ozone Galleria Mall Dhanbad, Jharkhand",23.8207749,86.4698116,Shopping mall,4.4,495,"Dhanbad, Jharkhand",075410 01888,In-store shopping
"KESHAR MISTHAN Bhurkunda, Jharkhand",23.6389097,85.3633504,Store,3.9,198,"Bhurkunda, Jharkhand",,"In-store shopping,In-store pick-up"
JHARKHAND STORE Jharkhand,23.6913486,85.2722472,Home goods store,5,1,Jharkhand,070042 82843,
"BHAGAT SINGH CHOWK Patratu, Jharkhand",23.6599937,85.3061382,Historical landmark,4.2,53,"Patratu, Jharkhand",,
"Gokul Sweets Ranchi, Jharkhand",23.328179,85.314894,Sweet shop,3.3,36,"Ranchi, Jharkhand",096081 46126,
"Aman General Store Bhurkunda, Jharkhand",23.6540747,85.3603343,Home goods store,5,4,"Bhurkunda, Jharkhand",,In-store shopping
"Bata Shoe Store Main road sarjana chowk Ranchi, Jharkhand",23.3009472,85.3178816,Shoe store,3.7,113,"Ranchi, Jharkhand",062992 33507,
"Patanjali Store Phusro, Jharkhand",23.7670005,85.9879413,General store,4.4,21,"Phusro, Jharkhand",,"In-store shopping,Delivery"
"Mamta misthan bhandar Patratu, Jharkhand",23.6618805,85.3090305,Indian sweets shop,4.1,256,"Patratu, Jharkhand",,
"Sabbu General Store Ranchi, Jharkhand",23.3451605,85.3312793,Indian grocery store,4.2,68,"Ranchi, Jharkhand",,
"Koyal Sweets & restaurant Ranchi, Jharkhand",23.3275651,85.1953163,Bakery and Cake Shop,3.9,563,"Ranchi, Jharkhand",084049 08850,
"Vijay Cloth Store Ranchi, Jharkhand",23.3652789,85.3253193,Women's clothing store,4.8,12,"Ranchi, Jharkhand",,"In-store shopping,Delivery"
"Frontier Fruit Store Ranchi, Jharkhand",23.3586521,85.3255662,Bakery and Cake Shop,3.9,87,"Ranchi, Jharkhand",070613 44455,Delivery
"CHURUWALA Ranchi, Jharkhand",23.3720368,85.3197384,Indian sweets shop,3.9,3900,"Ranchi, Jharkhand",092796 88551,
"Keshri famous jalebi Ranchi, Jharkhand",23.3570102,85.324526,Indian sweets shop,,,"Ranchi, Jharkhand",,
"Shopping Mall Ranchi, Jharkhand",23.3756895,85.3173883,Shopping mall,5,1,"Ranchi, Jharkhand",,
"Azad General Store Hazaribagh, Jharkhand",24.0211662,85.3320097,General store,4.5,28,"Hazaribagh, Jharkhand",,In-store shopping
"MANJUSHREE SWEETS & BAKERY Ranchi, Jharkhand",23.338092,85.3122171,Bakery and Cake Shop,4.1,250,"Ranchi, Jharkhand",,
"Shri Ram Plaza Dhanbad, Jharkhand",23.7868834,86.4184927,Shopping mall,4.1,1000,"Dhanbad, Jharkhand",,On-site services
"Agarwal Books Ranchi, Jharkhand",23.3716216,85.3223538,Book store,3.9,479,"Ranchi, Jharkhand",0651 220 5162,"In-store shopping,In-store pick-up"
"Sonali Sweets & Cakery Ranchi, Jharkhand",23.376174,85.333749,Sweet shop,4.3,22,"Ranchi, Jharkhand",,
"Ichakdih 3 No more Ichakdih, Jharkhand",23.8040685,85.6007901,Home audio store,3.8,158,"Ichakdih, Jharkhand",097170 69245,
"Shankar Sweets Ranchi, Jharkhand",23.376795,85.3168411,Indian sweets shop,4.3,32,"Ranchi, Jharkhand",,
"Jewel Garden Ramgarh Cantonment, Jharkhand",23.6282223,85.5183814,Jewelry store,4.4,28,"Ramgarh Cantonment, Jharkhand",,"In-store shopping,Delivery"
"SHOBHA DRESSES Bhurkunda, Jharkhand",23.6501279,85.3624005,Clothing store,3.9,38,"Bhurkunda, Jharkhand",099343 84822,"In-store shopping,In-store pick-up"
"Reliance Smart Point Ranchi, Jharkhand",23.3440997,85.309562,Supermarket,4,1400,"Ranchi, Jharkhand",1800 102 7382,"In-store pick-up,Delivery"
"Reliance Fresh Ranchi, Jharkhand",23.3440997,85.309562,Supermarket,3.9,1500,"Ranchi, Jharkhand",,"In-store pick-up,Delivery"
"Ranchi Book Depot Ranchi, Jharkhand",23.3712004,85.3227756,Book store,4.3,166,"Ranchi, Jharkhand",088771 70808,"In-store shopping,Delivery"
"Bharat Bakery Ranchi, Jharkhand",23.3591315,85.3257442,Bakery and Cake Shop,4.1,1300,"Ranchi, Jharkhand",092346 11215,
"Barkha Sweets Pagar, Jharkhand",23.8891637,85.0732126,Indian sweets shop,4.5,29,"Pagar, Jharkhand",070337 13441,"Dine-in,Takeaway"
"SHREE DURGA MOBILE WORLD Ranchi, Jharkhand",23.3996011,85.3601673,Cell phone store,4.1,138,"Ranchi, Jharkhand",096083 02400,"In-store shopping,In-store pick-up"
"Paul Jewellers Ranchi, Jharkhand",23.3687027,85.3246542,Jewelry designer,3.9,108,"Ranchi, Jharkhand",,
"Famous One Singer Store Kusmarja, Jharkhand",24.10524,85.9287728,Health and beauty shop,,,"Kusmarja, Jharkhand",095342 18703,Delivery
"Metro Market Ranchi, Jharkhand",23.372263,85.3248284,Shopping mall,4.6,7,"Ranchi, Jharkhand",087977 51070,In-store shopping
"Suvidha Supermart Ranchi, Jharkhand",23.368403,85.339803,Supermarket,4.2,245,"Ranchi, Jharkhand",082922 68300,"In-store pick-up,Delivery"
"Raja General Store Ranchi, Jharkhand",23.3886705,85.3035648,Home goods store,3.6,129,"Ranchi, Jharkhand",,
"Rasraj Sweets Ramgarh Cantonment, Jharkhand",23.6300158,85.518017,Sweet shop,4,87,"Ramgarh Cantonment, Jharkhand",080841 78708,"In-store shopping,Delivery"
"Kolkata Famous Achar Ranchi, Jharkhand",23.3911554,85.3283805,Grocery store,,,"Ranchi, Jharkhand",079706 29665,
"Gokul Misthan Bhandar Ranchi, Jharkhand",23.3926579,85.269938,Sweet shop,4.1,18,"Ranchi, Jharkhand",099055 74427,
"Crown Book Depot Ranchi, Jharkhand",23.3710594,85.3231462,Book store,4,304,"Ranchi, Jharkhand",0651 220 3275,
"Jai Ganesh Misthan Bhandar Ramgarh Cantonment, Jharkhand",23.635939,85.5125302,Sweet shop,4.2,13,"Ramgarh Cantonment, Jharkhand",087098 93695,"In-store shopping,Delivery"
"Famous Polytrade Center Ranchi, Jharkhand",23.3782824,85.3167707,Dental supply store,3.9,8,"Ranchi, Jharkhand",088046 25046,Delivery
"Shree Jagdamba Sarees Ranchi, Jharkhand",23.3763167,85.3212419,Women's clothing store,5,8,"Ranchi, Jharkhand",062035 16962,
"Raj Rasoi Ramgarh Cantonment, Jharkhand",23.6326094,85.5151023,Indian sweets shop,3.8,523,"Ramgarh Cantonment, Jharkhand",079922 75676,"In-store pick-up,Delivery"
"Shyam Bhandar Ranchi, Jharkhand",23.3755785,85.2739213,Grocery store,3.2,6,"Ranchi, Jharkhand",081027 25242,"In-store shopping,Delivery"
"Sarkari Videshi Sharab Dukan Lohardaga, Jharkhand",23.4275435,84.6789921,Wine store,3.9,76,"Lohardaga, Jharkhand",,
"Shamsher Kirana Store Irba, Jharkhand",23.4590154,85.4456189,Indian grocery store,4.4,18,"Irba, Jharkhand",099395 18254,"In-store shopping,Delivery"
"Agarwal Book Store Ramgarh Cantonment, Jharkhand",23.6255817,85.5193967,Book store,3.9,210,"Ramgarh Cantonment, Jharkhand",091224 74827,"In-store shopping,In-store pick-up"
"Kalyan Jewellers India Limited Thana, Ramgarh Cantonment, Jharkhand",23.6338065,85.5147095,Jewelry store,4.7,19,"Thana, Ramgarh Cantonment, Jharkhand",1800 425 7333,Delivery
"Lilaram's Ranchi, Jharkhand",23.3633,85.325648,Women's clothing store,4.7,3,"Ranchi, Jharkhand",0651 220 1105,"In-store shopping,Delivery"
"7 Heaven Ranchi, Jharkhand",23.3742276,85.3362771,Bakery and Cake Shop,3.9,338,"Ranchi, Jharkhand",062030 32636,"Dine-in,Takeaway"
"DUKE EXCLUSIVE SHOWROOM BALAJI FASHION RANCHI Ranchi, Jharkhand",23.3722717,85.3206426,Clothing store,2.6,8,"Ranchi, Jharkhand",,In-store shopping
"Aman Store Ranchi, Jharkhand",23.3440997,85.309562,General store,4.4,11,"Ranchi, Jharkhand",092344 84600,
"Libas Tailors - Gents Tailor in Main Road Ranchi Ranchi, Jharkhand",23.363038,85.325318,Gents Tailor,4.4,117,"Ranchi, Jharkhand",093044 50022,
"Livpure Authorised Shop - National Electronics Ranchi, Jharkhand",23.3534106,85.326984,Electronics store,4.4,130,"Ranchi, Jharkhand",094311 66687,
"Bharat Kitchen House Ranchi, Jharkhand",23.3512368,85.3162337,Appliance store,3.8,221,"Ranchi, Jharkhand",,
"Priya Sweets Ramgarh Cantonment, Jharkhand",23.6267525,85.5153091,Sweet shop,3.8,68,"Ramgarh Cantonment, Jharkhand",,Delivery
New Frontier Bakery Hazaribagh,23.9977604,85.3718199,Bakery and Cake Shop,4,2000,Hazaribagh,077390 33619,"Dine-in,Drive-through"
"Chourasia Pan Dukan Hinoo Chowk Ranchi, Jharkhand",23.3276903,85.315154,General store,4.5,13,"Ranchi, Jharkhand",,
"SAFA & PAGRI TIE IN RANCHI Ranchi, Jharkhand",23.6820805,85.3775537,Clothing store,5,9,"Ranchi, Jharkhand",079090 56425,
"Sri Alankar Jewellers Hazaribagh, Jharkhand",23.99429,85.3537242,Jewelry store,4,179,"Hazaribagh, Jharkhand",099349 43065,
"Mangal sweets Ranchi, Jharkhand",23.3500386,85.3430163,Sweet shop,3.5,36,"Ranchi, Jharkhand",,Delivery
"Khandelwal Book Depot Hazaribagh, Jharkhand",23.9936393,85.3545448,Book store,3.9,673,"Hazaribagh, Jharkhand",,
"Ranchi Shopping Ranchi, Jharkhand",23.3843637,85.3104314,E-commerce service,5,3,"Ranchi, Jharkhand",070610 25279,
"Bakri Bazar Office,RMC Ranchi, Jharkhand",23.3726736,85.3184191,Home goods store,4.2,189,"Ranchi, Jharkhand",,
"V2 Shopping Mall Hazaribagh Hazaribagh, Jharkhand",23.9970109,85.3739504,Clothing store,3.7,18,"Hazaribagh, Jharkhand",,Delivery
"Leela Sweets & Restaurant Ranchi, Jharkhand",23.417668,85.2148767,Vegetarian,3.9,680,"Ranchi, Jharkhand",099737 25255,"Dine-in,Drive-through"
"Shalimar sweets Ramgarh Cantonment, Jharkhand",23.626985,85.5146059,Indian sweets shop,3.7,106,"Ramgarh Cantonment, Jharkhand",06553 223 045,Delivery
"Ranchi Sweets Ranchi, Jharkhand",23.3803789,85.3057539,Sweet shop,3.8,42,"Ranchi, Jharkhand",098359 42156,
"Nora Foto Lab Ranchi, Jharkhand",23.3681635,85.3250322,Camera store,3.5,217,"Ranchi, Jharkhand",094701 49748,"In-store shopping,In-store pick-up"
"Prasad General Store Barkakana, Jharkhand",23.6210928,85.4701049,Indian grocery store,5,30,"Barkakana, Jharkhand",097436 20209,"In-store shopping,Delivery"
"Dell Exclusive Store - Hari OM Tower, Circular Road, Ranchi Ranchi, Jharkhand",23.3760475,85.3335733,Computer store,4.2,72,"Ranchi, Jharkhand",080 4800 9763,
"Sethi's bakery Ranchi, Jharkhand",23.3742462,85.347295,Bakery and Cake Shop,4.2,71,"Ranchi, Jharkhand",099056 19197,
"Shakti infotech traders Hazaribagh, Jharkhand",23.9915024,85.3571873,Computer store,3.9,401,"Hazaribagh, Jharkhand",094311 40463,
"dutta Store Ranchi, Jharkhand",23.3796256,85.3409105,General store,4.7,3,"Ranchi, Jharkhand",,
"Famous Tea Stall Ranchi, Jharkhand",23.3999685,85.3558946,Store,,,"Ranchi, Jharkhand",088731 61804,
"potala sweater market Ramgarh Cantonment, Jharkhand",23.6251576,85.5165332,Clothing store,4.2,5,"Ramgarh Cantonment, Jharkhand",,
"Famous Shop Panki, Jharkhand",24.0288163,84.4762018,General store,,,"Panki, Jharkhand",092418 25470,
"Cheap & Best Cloth Store Ranchi, Jharkhand",23.399953,85.3593169,Clothing store,3.8,4,"Ranchi, Jharkhand",070505 83551,
"Azad Shop Ranchi, Jharkhand",23.3680517,85.3207687,Shoe store,5,1,"Ranchi, Jharkhand",062034 88234,
"Famous Giftwala and Internet Cafe Ranchi, Jharkhand",23.4041915,85.4851691,Gift shop,,,"Ranchi, Jharkhand",,
"FAMOUS KHADI BHANDAR Ranchi, Jharkhand",23.3189932,85.3003579,Men's clothing store,,,"Ranchi, Jharkhand",,
"Jagdish Puja Bhandar Bhurkunda, Jharkhand",23.6511961,85.3573454,Store,3.8,4,"Bhurkunda, Jharkhand",072091 87601,
"Vinit Store Ramgarh Cantonment, Jharkhand",23.6320186,85.5153393,General store,3.2,13,"Ramgarh Cantonment, Jharkhand",094313 31644,
"Show Off Ranchi, Jharkhand",23.3589409,85.324626,Men's clothing store,3,1,"Ranchi, Jharkhand",099052 16910,
"Cheap Cloth Store Ranchi, Jharkhand",23.4352769,85.3154384,Clothing store,5,2,"Ranchi, Jharkhand",,
"Famous Shoe Ranchi, Jharkhand",23.361292,85.3057584,Footwear wholesaler,,,"Ranchi, Jharkhand",089694 15946,
"Famous Tailors Ranchi, Jharkhand",23.3605263,85.325838,Clothing store,,,"Ranchi, Jharkhand",094711 50600,
"Footpath Cloth Shop Ranchi Ranchi, Jharkhand",23.3673064,85.3245379,Store,2.5,2,"Ranchi, Jharkhand",,
"Lalu Store Ranchi, Jharkhand",23.3590204,85.3477252,General store,5,5,"Ranchi, Jharkhand",,
"Famous Suitcase Ranchi, Jharkhand",23.3721282,85.3382711,Furniture store,,,"Ranchi, Jharkhand",085389 91798,
"Amrutha Swagruha Foods Tirupati, Andhra Pradesh",13.6372313,79.4183836,Sweet shop,4.4,726,"Tirupati, Andhra Pradesh",094980 02668,"In-store shopping,Kerbside pickup"
"Sri Vamsi Shopping Mall  Visakhapatnam, Andhra Pradesh",17.7187764,83.3030529,Shopping mall,3.9,2100,"Visakhapatnam, Andhra Pradesh",0891 669 8888,
"CMR Central Mall Visakhapatnam, Andhra Pradesh",17.7340891,83.3183981,Outlet mall,4.3,62000,"Visakhapatnam, Andhra Pradesh",076709 01543,
"Lifestyle Stores Vijayawada, Andhra Pradesh",16.5061743,80.6480153,Shopping mall,4.2,3400,"Vijayawada, Andhra Pradesh",1800 123 1555,"In-store shopping,Delivery"
"KALANIKETHAN Vijayawada, Andhra Pradesh",16.5019847,80.6430116,Clothing store,4,2300,"Vijayawada, Andhra Pradesh",0866 248 8333,Delivery
"PVP Square Vijayawada, Andhra Pradesh",16.5024438,80.6426619,Shopping mall,4.3,65000,"Vijayawada, Andhra Pradesh",0866 249 8111,
"Famous Trends. Guntur, Andhra Pradesh",16.3031395,80.4510248,Men's clothing store,4.3,52,"Guntur, Andhra Pradesh",088868 54391,Delivery
"CMR Shopping Mall Visakhapatnam, Andhra Pradesh",17.7147882,83.3037224,Shopping mall,4.2,9300,"Visakhapatnam, Andhra Pradesh",076709 00956,
"Lepakshi Handicrafts Emporium Visakhapatnam, Andhra Pradesh",17.7107102,83.3019439,Handicraft,4.3,202,"Visakhapatnam, Andhra Pradesh",089125 08037,
"Trendset Mall Vijayawada, Andhra Pradesh",16.4985518,80.6534651,Shopping mall,4.2,35000,"Vijayawada, Andhra Pradesh",0866 665 6658,
"LEPL Centro Vijayawada, Andhra Pradesh",16.4998245,80.6456146,Shopping mall,4.2,13000,"Vijayawada, Andhra Pradesh",0866 247 5777,
"Famous ladies fancy Vijayawada, Andhra Pradesh",16.4888333,80.6622992,Women's clothing store,5,2,"Vijayawada, Andhra Pradesh",,In-store shopping
"Best One Vijayawada, Andhra Pradesh",16.5225439,80.6576756,Clothing store,3.8,78,"Vijayawada, Andhra Pradesh",0866 669 6618,
"Swagruha Foods Guntur, Andhra Pradesh",16.3044566,80.4383034,Sweet shop,4.1,2300,"Guntur, Andhra Pradesh",099498 45000,
"Famous Pen Corner & Stationery Tirupati, Andhra Pradesh",13.6333469,79.4157088,Book store,4,86,"Tirupati, Andhra Pradesh",098485 37049,"In-store shopping,Delivery"
"famous killy shop Chirala, Andhra Pradesh",15.8277361,80.3562902,Book store,4.1,18,"Chirala, Andhra Pradesh",098660 25527,"In-store shopping,Delivery"
"Pattabhi rama Sweets Chirala, Andhra Pradesh",15.8197335,80.3480172,Indian sweets shop,4.5,4700,"Chirala, Andhra Pradesh",,
"Machavaram Yedukondalu shopping Samarlakota, Andhra Pradesh",17.0496861,82.16886,Clothing store,3.5,66,"Samarlakota, Andhra Pradesh",094932 16777,"In-store shopping,Delivery"
"Grand Modern Super Market Vijayawada, Andhra Pradesh",16.4972332,80.655102,Supermarket,4.2,9800,"Vijayawada, Andhra Pradesh",0866 669 5555,
"Ongole Murthy Sweets Ongole, Andhra Pradesh",15.5169276,80.0332655,Sweet shop,4.2,127,"Ongole, Andhra Pradesh",,
"Laka Shopping Mall Vijayawada, Andhra Pradesh",16.5438162,80.642368,Shopping mall,4.1,33,"Vijayawada, Andhra Pradesh",094917 64999,
"The IMPERIAL VSN Vijayawada, Andhra Pradesh",16.501111,80.6568387,Shopping mall,4.2,728,"Vijayawada, Andhra Pradesh",081255 29999,On-site services
"Madurai Famous Jigarthanda LLP - Since 1977 Tirupati, Andhra Pradesh",13.6387189,79.4184616,Ice Cream,4.6,27,"Tirupati, Andhra Pradesh",,"Dine-in,Kerbside pickup"
"MGB Felicity Mall Nellore, Andhra Pradesh",14.4321736,79.9666998,Shopping mall,4.5,41000,"Nellore, Andhra Pradesh",080191 92255,
"New Popular Ghee Sweets Tenali, Andhra Pradesh",16.2383592,80.649639,Sweet shop,4.1,178,"Tenali, Andhra Pradesh",092464 58223,Delivery
